[{"_id":"57f54d74e25c7c486ba34efa","id":111995,"name":"Garagem Expresso Rio Negro","latLng":{"lat":-2.567208191564092,"lng":-44.233175218105316}},{"_id":"57f54f75809070496bbf0a12","id":111997,"name":"Garagem Autoviária Matos","latLng":{"lat":-2.5467150811645185,"lng":-44.28594499826431}},{"_id":"57f65409e25c7c486ba3ce87","id":112174,"name":"P 3352 - R. Clodomir Cardoso, 715-755","latLng":{"lat":-2.55111759,"lng":-44.07319486}},{"_id":"57f65409e25c7c486ba3ce89","id":112274,"name":"P 3103 - R. 1, 1023-1063","latLng":{"lat":-2.54111211,"lng":-44.20008481}},{"_id":"57f65409e25c7c486ba3ce88","id":112224,"name":"P 603 - Av. dos Holandeses, 110-320","latLng":{"lat":-2.49332375,"lng":-44.2814362}},{"_id":"57f5505b809070496bbf0a3b","id":111998,"name":"Garagem Planeta Transportes","latLng":{"lat":-2.5208811863448246,"lng":-44.2673921585083}},{"_id":"57f65409e25c7c486ba3ce8c","id":112424,"name":"P 105 - Av. 1, 526-618","latLng":{"lat":-2.47058325,"lng":-44.16361213}},{"_id":"57f65409e25c7c486ba3ce86","id":112124,"name":"P 852 - Av. Jailson Sousa Viana, 349","latLng":{"lat":-2.58493307,"lng":-44.18583155}},{"_id":"57f65409e25c7c486ba3ce92","id":112724,"name":"P 4607 - R. São Sebastião, 1-31","latLng":{"lat":-2.5573127,"lng":-44.24831092}},{"_id":"57f547c9809070496bbf023a","id":111991,"name":"Garagem Ratrans","latLng":{"lat":-2.5489310752660748,"lng":-44.248820543289185}},{"_id":"57f65409e25c7c486ba3ce99","id":113074,"name":"P 1111 - Av. Oeste Interna, 62-64","latLng":{"lat":-2.58225359,"lng":-44.20628071}},{"_id":"57f548ec809070496bbf04e5","id":111992,"name":"Garagem Expresso Rei de França","latLng":{"lat":-2.5533308974671836,"lng":-44.21390354633331}},{"_id":"57f54a4d809070496bbf0605","id":111993,"name":"Garagem Taguatur","latLng":{"lat":-2.5647108792195894,"lng":-44.33092027902603}},{"_id":"57f65409e25c7c486ba3ce9b","id":113174,"name":"P 862 - Av. Jerônimo Albuquerque, 1420-1446","latLng":{"lat":-2.52658875,"lng":-44.24043059}},{"_id":"57f65409e25c7c486ba3ce8b","id":112374,"name":"P 2854 - Ponto Final Sá Viana","latLng":{"lat":-2.55621677,"lng":-44.30134623999999}},{"_id":"57f65409e25c7c486ba3ce85","id":112074,"name":"P 3601 - R. do Campo, 108-172","latLng":{"lat":-2.60593466,"lng":-44.24644411}},{"_id":"57f65409e25c7c486ba3ce98","id":113024,"name":"P 3860 - R. General Artur Carvalho, 1201-1269","latLng":{"lat":-2.51178119,"lng":-44.21676278}},{"_id":"57f65409e25c7c486ba3ce8f","id":112574,"name":"P 2356 - Estr. do Quebra Pote, 18","latLng":{"lat":-2.70480725,"lng":-44.23550606}},{"_id":"57f54e32e25c7c486ba34f25","id":111996,"name":"Garagem Speed car","latLng":{"lat":-2.5623904108041233,"lng":-44.1967910528183}},{"_id":"57f65409e25c7c486ba3ce8d","id":112474,"name":"P 2605 - MA-202, 20","latLng":{"lat":-2.52093478,"lng":-44.17649746}},{"_id":"57f65409e25c7c486ba3ce91","id":112674,"name":"P 2107 - Diniz Farma","latLng":{"lat":-2.53801452,"lng":-44.26933944}},{"_id":"57f65409e25c7c486ba3ce9a","id":113124,"name":"P 3611 - R. do Campo, 45","latLng":{"lat":-2.60834079,"lng":-44.24504399}},{"_id":"57f65409e25c7c486ba3ce95","id":112874,"name":"P 1609 - Av. Tiradentes, 915-1101","latLng":{"lat":-2.56610959,"lng":-44.21614855}},{"_id":"57f65409e25c7c486ba3ce93","id":112774,"name":"P 1858 - BR-135","latLng":{"lat":-2.6196131,"lng":-44.29618031}},{"_id":"57f553b1809070496bbf0cda","id":112001,"name":"Garagem Viação Primor","latLng":{"lat":-2.518228366445775,"lng":-44.24550801515579}},{"_id":"57f551f7e25c7c486ba35270","id":111999,"name":"Garagem Viação Aroeiras","latLng":{"lat":-2.6021298581461196,"lng":-44.19692784547806}},{"_id":"57f65409e25c7c486ba3ce90","id":112624,"name":"P 4856 - R. Turiaçú, 2","latLng":{"lat":-2.55722695,"lng":-44.27702665}},{"_id":"57f65409e25c7c486ba3ce94","id":112824,"name":"P 4358 - R. Principal, 704-1116","latLng":{"lat":-2.6155538,"lng":-44.21437562}},{"_id":"57f65409e25c7c486ba3ce9c","id":113224,"name":"P 3362 - R. Coronel Paiva, 116-172","latLng":{"lat":-2.50345822,"lng":-44.22973931}},{"_id":"57f65409e25c7c486ba3ce8a","id":112324,"name":"P 354 - Av. Cônego Ribamar de Carvalho, 711","latLng":{"lat":-2.55721087,"lng":-44.308438}},{"_id":"57f65409e25c7c486ba3ce84","id":112024,"name":"P 1101 - Av. Oeste Interna, 23","latLng":{"lat":-2.57192145,"lng":-44.20570135}},{"_id":"57f54c1ae25c7c486ba34e48","id":111994,"name":"Garagem Viper","latLng":{"lat":-2.5752440379511192,"lng":-44.217379689216614}},{"_id":"57f65409e25c7c486ba3ce8e","id":112524,"name":"P 5105 - Trav. Vitórino Freire, 204-332","latLng":{"lat":-2.61337811,"lng":-44.24147666}},{"_id":"57f65409e25c7c486ba3ce96","id":112924,"name":"P 4109 - R. Marli Sarney, 188-276","latLng":{"lat":-2.58848338,"lng":-44.20573622}},{"_id":"57f65409e25c7c486ba3ce97","id":112974,"name":"P 1360 - Av. Santos Dumont, Vila Lobão","latLng":{"lat":-2.56576929,"lng":-44.23885882}},{"_id":"57f65409e25c7c486ba3ce9d","id":113274,"name":"P 613 - Av. dos Holandeses, 1450-1644","latLng":{"lat":-2.49196784,"lng":-44.29355979}},{"_id":"57f65409e25c7c486ba3ce9e","id":113324,"name":"P 3113 - R. 1, 3","latLng":{"lat":-2.51641694,"lng":-44.2094779}},{"_id":"57f65409e25c7c486ba3cea4","id":113624,"name":"P 2366 - Estr. do Quebra Pote, 4","latLng":{"lat":-2.6918719,"lng":-44.21483159}},{"_id":"57f65409e25c7c486ba3ceaa","id":113924,"name":"P 1619 - Av. Transrural 09","latLng":{"lat":-2.64640956,"lng":-44.1804564}},{"_id":"57f65409e25c7c486ba3cea3","id":113574,"name":"P 5115 - R. Jaguarana - Res. Turiúba, São José de Ribamar","latLng":{"lat":-2.56593006,"lng":-44.10196424}},{"_id":"57f65409e25c7c486ba3ce9f","id":113374,"name":"P 364 - Av. Contôrno Leste Oeste, 03","latLng":{"lat":-2.53794485,"lng":-44.19885635}},{"_id":"57f65409e25c7c486ba3ceb6","id":114524,"name":"P 125 - Av. A, 27-85","latLng":{"lat":-2.5276981,"lng":-44.25288677}},{"_id":"57f65409e25c7c486ba3cea5","id":113674,"name":"P 4866 - R. Ulisses Guimarães, 1-71","latLng":{"lat":-2.54479383,"lng":-44.32939679}},{"_id":"57f65409e25c7c486ba3ceab","id":113974,"name":"P 4119 - R. Mirador, 47","latLng":{"lat":-2.56033521,"lng":-44.28003609}},{"_id":"57f65409e25c7c486ba3cec6","id":115324,"name":"P 3582 - R. do Arame, 284-306","latLng":{"lat":-2.6050826,"lng":-44.19475257}},{"_id":"57f65409e25c7c486ba3cea0","id":113424,"name":"P 2864 - Ponto Final Sta. Rosa","latLng":{"lat":-2.50013546,"lng":-44.222497350000026}},{"_id":"57f65409e25c7c486ba3cea9","id":113874,"name":"P 4368 - R. Principal, 982","latLng":{"lat":-2.62830775,"lng":-44.29018021}},{"_id":"57f65409e25c7c486ba3cebf","id":114974,"name":"P 1679 - Av. Trindade, 1343-1483","latLng":{"lat":-2.5668411,"lng":-44.15392399}},{"_id":"57f65409e25c7c486ba3ceb7","id":114574,"name":"P 2625 - MA-204, 3679-3845","latLng":{"lat":-2.52598316,"lng":-44.13317442}},{"_id":"57f65409e25c7c486ba3ceb4","id":114424,"name":"P 374 - Av. Contôrno Leste Oeste, 475-519","latLng":{"lat":-2.53935967,"lng":-44.2060554}},{"_id":"57f65409e25c7c486ba3cea2","id":113524,"name":"P 2615 - MA-202, 57","latLng":{"lat":-2.54335759,"lng":-44.19446826}},{"_id":"57f65409e25c7c486ba3ceb0","id":114224,"name":"P 872 - Av. Jerônimo de Albuquerque, 1621-1849","latLng":{"lat":-2.5128584,"lng":-44.26241934}},{"_id":"57f65409e25c7c486ba3cec3","id":115174,"name":"P 1281 - Av. Principal, 3966-4784","latLng":{"lat":-2.49233763,"lng":-44.10024226}},{"_id":"57f65409e25c7c486ba3ceba","id":114724,"name":"P 4876 - R. Um, 232-378","latLng":{"lat":-2.55697775,"lng":-44.32389021}},{"_id":"57f65409e25c7c486ba3ceb5","id":114474,"name":"P 2874 - Ponto Final T075 e A666","latLng":{"lat":-2.59023307,"lng":-44.179737569999986}},{"_id":"57f65409e25c7c486ba3cebd","id":114874,"name":"P 1878 - BR-135, 103-5000","latLng":{"lat":-2.62854353,"lng":-44.26335812}},{"_id":"57f65409e25c7c486ba3cea7","id":113774,"name":"P 4617 - R. São Sebastião, 506-1036","latLng":{"lat":-2.61302443,"lng":-44.24794615}},{"_id":"57f65409e25c7c486ba3ceb8","id":114624,"name":"P 5125 - Av. do Sabiá, 2801-3159 - São Cristovao,","latLng":{"lat":-2.5915085,"lng":-44.31111753}},{"_id":"57f65409e25c7c486ba3cebb","id":114774,"name":"P 2127 - Entrada da Feira do Maiobão","latLng":{"lat":-2.53763134,"lng":-44.17316616}},{"_id":"57f65409e25c7c486ba3cec2","id":115124,"name":"P 3980 - R. Gregório de Matos, 11","latLng":{"lat":-2.52506674,"lng":-44.28506255}},{"_id":"57f65409e25c7c486ba3cea8","id":113824,"name":"P 1868 - BR-135","latLng":{"lat":-2.729563,"lng":-44.35795426}},{"_id":"57f65409e25c7c486ba3cec0","id":115024,"name":"P 4179 - R. Nova Jerusalém, 401-533","latLng":{"lat":-2.57174996,"lng":-44.23002362}},{"_id":"57f65409e25c7c486ba3cea1","id":113474,"name":"P 115 - Av. 9, 293-351","latLng":{"lat":-2.53920961,"lng":-44.17088091}},{"_id":"57f65409e25c7c486ba3cea6","id":113724,"name":"P 2117 - Eletrolar","latLng":{"lat":-2.57427942,"lng":-44.1915822}},{"_id":"57f65409e25c7c486ba3ceae","id":114124,"name":"P 1121 - Av. Oito, 203-261","latLng":{"lat":-2.50647015,"lng":-44.22368288}},{"_id":"57f65409e25c7c486ba3ceb2","id":114324,"name":"P 623 - Av. dos Holandeses, 2106-2152","latLng":{"lat":-2.49175882,"lng":-44.30452466}},{"_id":"57f65409e25c7c486ba3ceac","id":114024,"name":"P 1370 - Av. São Luís Rei de França, 2012-2124","latLng":{"lat":-2.49183118,"lng":-44.22983587}},{"_id":"57f65409e25c7c486ba3ceb9","id":114674,"name":"P 2376 - Estr. Nova de Vinhais, 453-499","latLng":{"lat":-2.52180833,"lng":-44.262878}},{"_id":"57f65409e25c7c486ba3cead","id":114074,"name":"P 3870 - R. General Artur Carvalho, 1352-1514","latLng":{"lat":-2.51041993,"lng":-44.21571136}},{"_id":"57f65409e25c7c486ba3ceaf","id":114174,"name":"P 3621 - R. do Cema, 117-221","latLng":{"lat":-2.54181416,"lng":-44.25915241}},{"_id":"57f65409e25c7c486ba3cebe","id":114924,"name":"P 4378 - R. Principal, Tajaçuaba","latLng":{"lat":-2.63529021,"lng":-44.21836138}},{"_id":"57f65409e25c7c486ba3ceb1","id":114274,"name":"P 3372 - R. da Ata","latLng":{"lat":-2.54977781,"lng":-44.18678641}},{"_id":"57f65409e25c7c486ba3cebc","id":114824,"name":"P 4627 - R. Seis, 143-291","latLng":{"lat":-2.46564783,"lng":-44.16456699}},{"_id":"57f65409e25c7c486ba3ceb3","id":114374,"name":"P 3123 - R. 1, 518-554","latLng":{"lat":-2.51394097,"lng":-44.21001971}},{"_id":"57f65409e25c7c486ba3cec4","id":115224,"name":"P 3781 - R. Estácio de Sá, 61","latLng":{"lat":-2.51160969,"lng":-44.18991923}},{"_id":"57f65409e25c7c486ba3cec1","id":115074,"name":"P 1480 - Av. Sol Nascente, 825-861","latLng":{"lat":-2.4895079,"lng":-44.2159903}},{"_id":"57f65409e25c7c486ba3cec5","id":115274,"name":"P 1082 - Av. Norte, Res. Nova Vida - 07","latLng":{"lat":-2.62342857,"lng":-44.19813216}},{"_id":"57f65409e25c7c486ba3cec9","id":115474,"name":"P 684 - Av. Doze, 664-752","latLng":{"lat":-2.54855594,"lng":-44.17189479}},{"_id":"57f65409e25c7c486ba3cec7","id":115374,"name":"P 883 - Av. Jerônimo de Albuquerque, Vinhais","latLng":{"lat":-2.51760937,"lng":-44.25615907}},{"_id":"57f65409e25c7c486ba3ced0","id":115824,"name":"P 2587 - MA-201, 48","latLng":{"lat":-2.54775207,"lng":-44.1159761}},{"_id":"57f65409e25c7c486ba3cedd","id":116474,"name":"P 3893 - R. General Artur Carvalho, 547-551","latLng":{"lat":-2.54662666,"lng":-44.10324097}},{"_id":"57f65409e25c7c486ba3cecd","id":115674,"name":"P 286 - Av. Caracoeiras 06 - Mato Grosso","latLng":{"lat":-2.66843093,"lng":-44.18148369}},{"_id":"57f65409e25c7c486ba3cecc","id":115624,"name":"P 2985 - Pró Verde","latLng":{"lat":-2.53494179,"lng":-44.17190683}},{"_id":"57f65409e25c7c486ba3cedb","id":116374,"name":"P 4092 - R. José Sarney, 992-1064","latLng":{"lat":-2.56682234,"lng":-44.22029257}},{"_id":"57f65409e25c7c486ba3ced4","id":116024,"name":"P 2189 - Estr. da Mata, 30","latLng":{"lat":-2.58378626,"lng":-44.18135762}},{"_id":"57f65409e25c7c486ba3cecb","id":115574,"name":"P 485 - Av. de Sta.na, 2271-2277","latLng":{"lat":-2.5848902,"lng":-44.18052077}},{"_id":"57f65409e25c7c486ba3cedc","id":116424,"name":"P 1393 - Av. São Raimundo, 902-938","latLng":{"lat":-2.59809729,"lng":-44.22810316}},{"_id":"57f65409e25c7c486ba3ced6","id":116124,"name":"P 1990 - Canto da Fabril","latLng":{"lat":-2.53299566,"lng":-44.29101169}},{"_id":"57f65409e25c7c486ba3cede","id":116524,"name":"P 1194 - Av. Piancó, 7","latLng":{"lat":-2.56865781,"lng":-44.30009902}},{"_id":"57f65409e25c7c486ba3ceda","id":116324,"name":"P 1592 - Av. Tancredo Neves, 667","latLng":{"lat":-2.52251039,"lng":-44.15940106}},{"_id":"57f65409e25c7c486ba3ced9","id":116274,"name":"P 4291 - R. Principal, 1290-1474","latLng":{"lat":-2.48560628,"lng":-44.14383888}},{"_id":"57f65409e25c7c486ba3ced1","id":115874,"name":"P 5087 - Trav. São Jorge, 398-442","latLng":{"lat":-2.54151806,"lng":-44.23957363}},{"_id":"57f65409e25c7c486ba3ced7","id":116174,"name":"P 4490 - R. São Carlos, 1","latLng":{"lat":-2.45407137,"lng":-44.14851665}},{"_id":"57f65409e25c7c486ba3cee1","id":116660,"name":"P 3495 - R. das Acácias, 387-429","latLng":{"lat":-2.55302543,"lng":-44.2353934}},{"_id":"57f65409e25c7c486ba3cee2","id":116724,"name":"P 796 - Av. Gonçalves Dias, 947","latLng":{"lat":-2.55629447,"lng":-44.05792236}},{"_id":"57f65409e25c7c486ba3cec8","id":115424,"name":"P 3383 - R. da Caema, 379-439","latLng":{"lat":-2.49704313,"lng":-44.25606251}},{"_id":"57f65409e25c7c486ba3ced3","id":115974,"name":"P 4888 - R. Um, 34","latLng":{"lat":-2.51193125,"lng":-44.25071955}},{"_id":"57f65409e25c7c486ba3ceca","id":115524,"name":"P 3184 - R. 6, 670-706","latLng":{"lat":-2.5211947,"lng":-44.23790127}},{"_id":"57f65409e25c7c486ba3cecf","id":115774,"name":"P 87 - Av. 01, 173","latLng":{"lat":-2.53632639,"lng":-44.1575557}},{"_id":"57f65409e25c7c486ba3cece","id":115724,"name":"P 2786 - Ponto Final C102","latLng":{"lat":-2.52912231,"lng":-44.30306888999996}},{"_id":"57f65409e25c7c486ba3ced2","id":115924,"name":"P 2388 - Estr. para Boa Viagem, 33","latLng":{"lat":-2.5660694,"lng":-44.11730111}},{"_id":"57f65409e25c7c486ba3cedf","id":116574,"name":"P 3694 - R. Dois, 336-398","latLng":{"lat":-2.55290753,"lng":-44.26341176}},{"_id":"57f65409e25c7c486ba3ced5","id":116074,"name":"P 4689 - R. sem nome","latLng":{"lat":-2.66100388,"lng":-44.19490814}},{"_id":"57f65409e25c7c486ba3cee0","id":116624,"name":"P 995 - Av. Litoranea, Ferreira Goular Ou Atlântica de São Luís, 75-103","latLng":{"lat":-2.50551083,"lng":-44.30930972}},{"_id":"57f65409e25c7c486ba3ced8","id":116224,"name":"P 1791 - Av. Vicente Venâncio de Queiroga, 725","latLng":{"lat":-2.5599172,"lng":-44.27497745}},{"_id":"57f65409e25c7c486ba3cee7","id":116974,"name":"P 2898 - Ponto Final Vila Palmeira","latLng":{"lat":-2.54126753,"lng":-44.250915350000014}},{"_id":"57f65409e25c7c486ba3ceee","id":112075,"name":"P 3651 - R. do Passeio, 547-593","latLng":{"lat":-2.53511521,"lng":-44.29643512}},{"_id":"57f65409e25c7c486ba3cee9","id":117074,"name":"P 2699 - Padaria Almeida","latLng":{"lat":-2.54125145,"lng":-44.17025595}},{"_id":"57f65409e25c7c486ba3cee4","id":116831,"name":"P 597 - Av. dos Franceses, Caratatiua","latLng":{"lat":-2.53963566,"lng":-44.26608056}},{"_id":"57f65409e25c7c486ba3cee3","id":116774,"name":"P 3296 - R. Bolívia, 411-597","latLng":{"lat":-2.56088184,"lng":-44.32652682}},{"_id":"57f65409e25c7c486ba3cf01","id":113025,"name":"P 3910 - R. General Artur Carvalho, 7526-7796","latLng":{"lat":-2.50555371,"lng":-44.16003406}},{"_id":"57f65409e25c7c486ba3cf0f","id":113725,"name":"P 2167 - Estr. da Maioba, 2698","latLng":{"lat":-2.54535118,"lng":-44.1966033}},{"_id":"57f65409e25c7c486ba3cef3","id":112325,"name":"P 404 - Av. Contôrno Leste, 620-668","latLng":{"lat":-2.53459805,"lng":-44.19647992}},{"_id":"57f65409e25c7c486ba3cef4","id":112375,"name":"P 2904 - Pop Center","latLng":{"lat":-2.54947636,"lng":-44.21790674}},{"_id":"57f65409e25c7c486ba3cf2f","id":115325,"name":"P 3632 - R. do Coletor Agrícola, 165-221","latLng":{"lat":-2.61973368,"lng":-44.25719976}},{"_id":"57f65409e25c7c486ba3cef7","id":112525,"name":"P 5155 - Av. dos Portugueses, 7249-7323 - Sá Viana,","latLng":{"lat":-2.55725911,"lng":-44.31208849}},{"_id":"57f65409e25c7c486ba3cf14","id":113975,"name":"P 4169 - R. Nossa Senhora das Liberdade, 20","latLng":{"lat":-2.60723687,"lng":-44.17972147}},{"_id":"57f65409e25c7c486ba3cefa","id":112675,"name":"P 2157 - Estr. da Maioba, 106-276","latLng":{"lat":-2.53272502,"lng":-44.18337464}},{"_id":"57f65409e25c7c486ba3cf16","id":114075,"name":"P 3920 - R. General Artur Carvalho, 8506-8674","latLng":{"lat":-2.50049453,"lng":-44.16537166}},{"_id":"57f65409e25c7c486ba3cf4b","id":116725,"name":"P 846 - Av. Jailson Sousa Viana","latLng":{"lat":-2.60572567,"lng":-44.1841042}},{"_id":"57f65409e25c7c486ba3cefc","id":112775,"name":"P 1908 - BR-135, 25","latLng":{"lat":-2.61940143,"lng":-44.25656677}},{"_id":"57f65409e25c7c486ba3ceef","id":112125,"name":"P 902 - Av. João Castelo 14, Recanto Canaã","latLng":{"lat":-2.60180297,"lng":-44.22616929}},{"_id":"57f65409e25c7c486ba3cf22","id":114675,"name":"P 2426 - Estr. para Juçara","latLng":{"lat":-2.44132642,"lng":-44.09611702}},{"_id":"57f65409e25c7c486ba3cf2a","id":115075,"name":"P 1530 - Av. Sta. Rosa - 36","latLng":{"lat":-2.63064685,"lng":-44.19052809}},{"_id":"57f65409e25c7c486ba3cf05","id":113225,"name":"P 3412 - R. da Independência, 139-175","latLng":{"lat":-2.55129444,"lng":-44.33234453}},{"_id":"57f65409e25c7c486ba3cf32","id":115475,"name":"P 734 - Av. Eng. Emiliano Macieira, 54","latLng":{"lat":-2.64005413,"lng":-44.31013584}},{"_id":"57f65409e25c7c486ba3cf09","id":113425,"name":"P 2914 - Posto de Saúde Salomão Fiquene","latLng":{"lat":-2.53874337,"lng":-44.20334101}},{"_id":"57f65409e25c7c486ba3cf3c","id":115975,"name":"P 4938 - R. Vinte e Nove, 40-348","latLng":{"lat":-2.53231245,"lng":-44.24449548}},{"_id":"57f65409e25c7c486ba3cf1a","id":114275,"name":"P 3422 - R. da Mangueira, 11","latLng":{"lat":-2.51742448,"lng":-44.18925941}},{"_id":"57f65409e25c7c486ba3cf21","id":114625,"name":"P 5175 - R. Ten. Nojosa, 78-146 - São Cristovao,","latLng":{"lat":-2.59058676,"lng":-44.24651384}},{"_id":"57f65409e25c7c486ba3cf24","id":114775,"name":"P 2177 - Estr. da Maioba, 96","latLng":{"lat":-2.52431109,"lng":-44.17308569}},{"_id":"57f65409e25c7c486ba3cf25","id":114825,"name":"P 4677 - R. sem nome","latLng":{"lat":-2.57104257,"lng":-44.15458381}},{"_id":"57f6540ae25c7c486ba3cf65","id":112776,"name":"P 1958 - BR-135, 8074","latLng":{"lat":-2.71376653,"lng":-44.31869745}},{"_id":"57f65409e25c7c486ba3cf3e","id":116075,"name":"P 4739 - R. Sta. Helena, 445-495","latLng":{"lat":-2.57371136,"lng":-44.17120814}},{"_id":"57f6540ae25c7c486ba3cf6f","id":113276,"name":"P 713 - Av. Eng. Emiliano Macieira, 1","latLng":{"lat":-2.59867337,"lng":-44.327479}},{"_id":"57f65409e25c7c486ba3cf3f","id":116125,"name":"P 2040 - CINTRA","latLng":{"lat":-2.54799055,"lng":-44.2382285}},{"_id":"57f65409e25c7c486ba3cf07","id":113325,"name":"P 3163 - R. 21 de Junho, 342-470","latLng":{"lat":-2.60686175,"lng":-44.19244051}},{"_id":"57f65409e25c7c486ba3cee6","id":116924,"name":"P 398 - Av. Contôrno Leste, 436-518","latLng":{"lat":-2.53569936,"lng":-44.19623047}},{"_id":"57f65409e25c7c486ba3cee5","id":116874,"name":"P 3097 - Rotatória PMMA","latLng":{"lat":-2.49426164,"lng":-44.27868962}},{"_id":"57f65409e25c7c486ba3cef6","id":112475,"name":"P 2655 - Mato Grosso 03","latLng":{"lat":-2.67059312,"lng":-44.17707682}},{"_id":"57f65409e25c7c486ba3cf2d","id":115225,"name":"P 3831 - R. General Artur Carvalho","latLng":{"lat":-2.4770527,"lng":-44.13175285}},{"_id":"57f65409e25c7c486ba3cef5","id":112425,"name":"P 155 - Av. Argentina, 24-26","latLng":{"lat":-2.4988251,"lng":-44.2171517}},{"_id":"57f65409e25c7c486ba3ceff","id":112925,"name":"P 4159 - R. Nossa Senhora da Vitória, 2567-2613","latLng":{"lat":-2.5145814,"lng":-44.21201795}},{"_id":"57f65409e25c7c486ba3cefd","id":112825,"name":"P 4408 - R. Quatro, 1-47","latLng":{"lat":-2.55962781,"lng":-44.27447319}},{"_id":"57f65409e25c7c486ba3cf47","id":116525,"name":"P 1244 - Av. Principal Jardim América, 308","latLng":{"lat":-2.58444005,"lng":-44.19504762}},{"_id":"57f65409e25c7c486ba3cef2","id":112275,"name":"P 3153 - R. 2, 5737-5863","latLng":{"lat":-2.52144391,"lng":-44.21734214}},{"_id":"57f65409e25c7c486ba3cf4a","id":116665,"name":"P 3545 - R. Dez, 704","latLng":{"lat":-2.57253774,"lng":-44.22158539}},{"_id":"57f65409e25c7c486ba3cef1","id":112225,"name":"P 653 - Av. dos Holandeses, 6383-6511","latLng":{"lat":-2.49402047,"lng":-44.26925361}},{"_id":"57f6540ae25c7c486ba3cf60","id":112526,"name":"P 5205 - R. da Saudade, 1913-1915 - São Raimundo,","latLng":{"lat":-2.60525944,"lng":-44.21830505}},{"_id":"57f65409e25c7c486ba3cf00","id":112975,"name":"P 1410 - Av. Sarney Filho, 421-455","latLng":{"lat":-2.57192413,"lng":-44.30246204}},{"_id":"57f65409e25c7c486ba3cf1b","id":114325,"name":"P 673 - Av. dos Nobres, 233","latLng":{"lat":-2.55802813,"lng":-44.27476287}},{"_id":"57f65409e25c7c486ba3cf0b","id":113525,"name":"P 2665 - Mercadinho Varão","latLng":{"lat":-2.58441058,"lng":-44.19838428000003}},{"_id":"57f65409e25c7c486ba3cef8","id":112575,"name":"P 2406 - Estr. para Fábrica, 38","latLng":{"lat":-2.47474279,"lng":-44.1001457}},{"_id":"57f65409e25c7c486ba3cf27","id":114925,"name":"P 4428 - R. Quinze, 412","latLng":{"lat":-2.5658336,"lng":-44.19481158}},{"_id":"57f65409e25c7c486ba3cf29","id":115025,"name":"P 4229 - R. Onze, 1-5","latLng":{"lat":-2.50329209,"lng":-44.22303378999999}},{"_id":"57f65409e25c7c486ba3cefe","id":112875,"name":"P 1659 - Av. Transrural, 15789","latLng":{"lat":-2.66938744,"lng":-44.18658793}},{"_id":"57f65409e25c7c486ba3cf03","id":113125,"name":"P 3661 - R. do Porto, 185-301","latLng":{"lat":-2.52825546,"lng":-44.22150493}},{"_id":"57f65409e25c7c486ba3cf1e","id":114475,"name":"P 2924 - Pça. 7 Palmeiras","latLng":{"lat":-2.57019585,"lng":-44.30890471}},{"_id":"57f65409e25c7c486ba3cf04","id":113175,"name":"P 912 - Av. Joaquim Mochel, 1","latLng":{"lat":-2.5558068,"lng":-44.27828193}},{"_id":"57f65409e25c7c486ba3cf43","id":116325,"name":"P 1642 - Av. Transrural 33","latLng":{"lat":-2.6490246,"lng":-44.17880416}},{"_id":"57f65409e25c7c486ba3cf19","id":114225,"name":"P 922 - Av. Joaquim Mochel, 124","latLng":{"lat":-2.53233648,"lng":-44.20201331}},{"_id":"57f65409e25c7c486ba3cf28","id":114975,"name":"P 1729 - Av. Ulisses Guimarães, 2-82","latLng":{"lat":-2.48844674,"lng":-44.27649021000002}},{"_id":"57f65409e25c7c486ba3cf0c","id":113575,"name":"P 5165 - BR-135, 1102-1262 - São Cristovao,","latLng":{"lat":-2.58914521,"lng":-44.24430369999999}},{"_id":"57f65409e25c7c486ba3cf23","id":114725,"name":"P 4926 - R. Vinte e Cinco, 33","latLng":{"lat":-2.54459019,"lng":-44.20249611}},{"_id":"57f65409e25c7c486ba3cf20","id":114575,"name":"P 2675 - MM Placas","latLng":{"lat":-2.64584421,"lng":-44.26371753}},{"_id":"57f65409e25c7c486ba3cf46","id":116475,"name":"P 3943 - R. Gov. Epitácio Cafeteira, 117","latLng":{"lat":-2.57153025,"lng":-44.26947355}},{"_id":"57f65409e25c7c486ba3cf0d","id":113625,"name":"P 2416 - Estr. para Igaraú 12","latLng":{"lat":-2.74116105,"lng":-44.33637053}},{"_id":"57f65409e25c7c486ba3cf30","id":115375,"name":"P 933 - Av. Joaquim Mochel, 158","latLng":{"lat":-2.53208996,"lng":-44.1971907}},{"_id":"57f65409e25c7c486ba3cf3d","id":116025,"name":"P 2239 - Estr. de Sta. Maria x Estr. do Guarapiranga","latLng":{"lat":-2.636512,"lng":-44.17865932}},{"_id":"57f65409e25c7c486ba3cf11","id":113825,"name":"P 1918 - BR-135, 30","latLng":{"lat":-2.73845779,"lng":-44.33691502}},{"_id":"57f65409e25c7c486ba3cf3a","id":115875,"name":"P 5137 - R. Cento e Um, 2-48 - Cidade Operária,","latLng":{"lat":-2.56872748,"lng":-44.19820189}},{"_id":"57f65409e25c7c486ba3cf51","id":117025,"name":"P 249 - Av. C, 19-125","latLng":{"lat":-2.54614433,"lng":-44.19848084}},{"_id":"57f65409e25c7c486ba3cf17","id":114125,"name":"P 1171 - Av. Pavão Filho, 35-43","latLng":{"lat":-2.58605845,"lng":-44.19189334}},{"_id":"57f65409e25c7c486ba3cf4f","id":116925,"name":"P 448 - Av. Contôrno, 25","latLng":{"lat":-2.536160251676441,"lng":-44.25171732902527}},{"_id":"57f65409e25c7c486ba3cf42","id":116275,"name":"P 4341 - R. Principal, 37","latLng":{"lat":-2.48244961,"lng":-44.13652181}},{"_id":"57f65409e25c7c486ba3cf55","id":117225,"name":"P 5050 - Trav. Cinco, 46-80","latLng":{"lat":-2.54526544,"lng":-44.16427732}},{"_id":"57f65409e25c7c486ba3ceed","id":112025,"name":"P 1151 - Av. Paraíso, 26","latLng":{"lat":-2.57187858,"lng":-44.1798234}},{"_id":"57f6540ae25c7c486ba3cf63","id":112676,"name":"P 2207 - Estr. da Vitória, 4414","latLng":{"lat":-2.5666053,"lng":-44.24270511}},{"_id":"57f65409e25c7c486ba3cf31","id":115425,"name":"P 3433 - R. da Mangueira, 828-898","latLng":{"lat":-2.51205987,"lng":-44.19004261}},{"_id":"57f6540ae25c7c486ba3cf5e","id":112426,"name":"P 205 - Av. Beta, 33","latLng":{"lat":-2.50478733,"lng":-44.2434749}},{"_id":"57f6540ae25c7c486ba3cf67","id":112876,"name":"P 1709 - Av. Trindade, 4027-4091","latLng":{"lat":-2.5810371,"lng":-44.17053223}},{"_id":"57f65409e25c7c486ba3cf50","id":116975,"name":"P 2948 - Pça. do São Raimundo","latLng":{"lat":-2.59921462,"lng":-44.22545046}},{"_id":"57f6540ae25c7c486ba3cf61","id":112576,"name":"P 2456 - Feira da Vila Lobão","latLng":{"lat":-2.56909189,"lng":-44.23688471}},{"_id":"57f65409e25c7c486ba3cf53","id":117125,"name":"P 50 - Al. Porto Franco, 261-515","latLng":{"lat":-2.57357739,"lng":-44.18480426}},{"_id":"57f6540ae25c7c486ba3cf68","id":112926,"name":"P 4209 - R. Odilo C Filho, 61","latLng":{"lat":-2.55606135,"lng":-44.33070302}},{"_id":"57f6540ae25c7c486ba3cf6a","id":113026,"name":"P 3960 - R. Grande, 120","latLng":{"lat":-2.67515327,"lng":-44.27137256}},{"_id":"57f6540ae25c7c486ba3cf69","id":112976,"name":"P 1460 - Av. Sol Nascente, 1038-1048","latLng":{"lat":-2.48770715,"lng":-44.2161727}},{"_id":"57f6540ae25c7c486ba3cf57","id":112076,"name":"P 3701 - R. Dois, 594-656","latLng":{"lat":-2.55475642,"lng":-44.26531613}},{"_id":"57f65409e25c7c486ba3cf0a","id":113475,"name":"P 165 - Av. Atlântica de São Luís Ou Ferreira Gullar, 2862-3096","latLng":{"lat":-2.517462,"lng":-44.2997396}},{"_id":"57f6540ae25c7c486ba3cf59","id":112176,"name":"P 3452 - R. da Saudade x R. 51","latLng":{"lat":-2.59689957,"lng":-44.21754062}},{"_id":"57f65409e25c7c486ba3cf12","id":113875,"name":"P 4418 - R. Quatro, 285","latLng":{"lat":-2.56075858,"lng":-44.27267611}},{"_id":"57f65409e25c7c486ba3ceeb","id":117173,"name":"P 2500 - Hospital da Criança","latLng":{"lat":-2.53768493,"lng":-44.27351028}},{"_id":"57f65409e25c7c486ba3cee8","id":117024,"name":"P 199 - Av. Beira-Mar","latLng":{"lat":-2.52462914,"lng":-44.29954752}},{"_id":"57f6540ae25c7c486ba3cf5a","id":112226,"name":"P 703 - Av. el Shaday, Res. Nova Vida - 03","latLng":{"lat":-2.62690911,"lng":-44.19619828}},{"_id":"57f65409e25c7c486ba3cf13","id":113925,"name":"P 1669 - Av. Três, 41","latLng":{"lat":-2.55830917,"lng":-44.25224304}},{"_id":"57f65409e25c7c486ba3cef0","id":112175,"name":"P 3402 - R. da Goiaba, 2625-2665","latLng":{"lat":-2.60197177,"lng":-44.199028020000014}},{"_id":"57f65409e25c7c486ba3ceea","id":117124,"name":"P 5199 - R. Vila Regino, 22,","latLng":{"lat":-2.62530415,"lng":-44.19015795}},{"_id":"57f6540ae25c7c486ba3cf6b","id":113076,"name":"P 1211 - Av. Pres. Médici, 2478-2484","latLng":{"lat":-2.55453669,"lng":-44.27081466}},{"_id":"57f65409e25c7c486ba3cf1d","id":114425,"name":"P 424 - Av. Contôrno Norte, 575-621","latLng":{"lat":-2.53641213,"lng":-44.20609832}},{"_id":"57f65409e25c7c486ba3cf35","id":115625,"name":"P 3035 - Res. Ribeira","latLng":{"lat":-2.634331,"lng":-44.25120234}},{"_id":"57f65409e25c7c486ba3ceec","id":117224,"name":"P 5000 - Silmel","latLng":{"lat":-2.53549572,"lng":-44.20149028}},{"_id":"57f6540ae25c7c486ba3cf6d","id":113176,"name":"P 962 - Av. José Câmara, 56B","latLng":{"lat":-2.56012085,"lng":-44.18356776}},{"_id":"57f65409e25c7c486ba3cf06","id":113275,"name":"P 663 - Av. dos Holandeses, 8822-8840","latLng":{"lat":-2.48316776,"lng":-44.21830237}},{"_id":"57f65409e25c7c486ba3cf3b","id":115925,"name":"P 2438 - Fazenda","latLng":{"lat":-2.70026328,"lng":-44.25313354}},{"_id":"57f65409e25c7c486ba3cf2c","id":115175,"name":"P 1331 - Av. Santiago, 1141-1475","latLng":{"lat":-2.61677025,"lng":-44.20104504}},{"_id":"57f65409e25c7c486ba3cf10","id":113775,"name":"P 4667 - R. sem nome","latLng":{"lat":-2.65854159,"lng":-44.29384947}},{"_id":"57f65409e25c7c486ba3cf15","id":114025,"name":"P 1420 - Av. Seis, 37","latLng":{"lat":-2.57802536,"lng":-44.19068098}},{"_id":"57f65409e25c7c486ba3cf44","id":116375,"name":"P 4142 - R. N. Sra. de Fátima n.7, Bom Jardim","latLng":{"lat":-2.63257332,"lng":-44.1620028}},{"_id":"57f65409e25c7c486ba3cf54","id":117174,"name":"P 2550 - Lojão da Ilha","latLng":{"lat":-2.53797969,"lng":-44.17457432}},{"_id":"57f65409e25c7c486ba3cf1c","id":114375,"name":"P 3173 - R. 4 Quadra 7, 5","latLng":{"lat":-2.56474035,"lng":-44.31051403}},{"_id":"57f6540ae25c7c486ba3cf64","id":112726,"name":"P 4707 - R. sem nome","latLng":{"lat":-2.60179225,"lng":-44.30532932}},{"_id":"57f65409e25c7c486ba3cf4d","id":116826,"name":"P 647 - Av. dos Holandeses, 558-564","latLng":{"lat":-2.47689191,"lng":-44.19564843}},{"_id":"57f65409e25c7c486ba3cf34","id":115575,"name":"P 535 - Av. Dois, 1-61","latLng":{"lat":-2.536058427564999,"lng":-44.23713684082031}},{"_id":"57f65409e25c7c486ba3cf33","id":115525,"name":"P 3234 - R. Antenor Melo, 350-446","latLng":{"lat":-2.55886147,"lng":-44.0603739}},{"_id":"57f6540ae25c7c486ba3cf6c","id":113126,"name":"P 3711 - R. Domingos Rodrigues, 10","latLng":{"lat":-2.47964665,"lng":-44.22164977}},{"_id":"57f65409e25c7c486ba3cf36","id":115675,"name":"P 336 - Av. Cinco, 422-522","latLng":{"lat":-2.53586014,"lng":-44.15009379}},{"_id":"57f6540ae25c7c486ba3cf58","id":112126,"name":"P 952 - Av. Joaquim Mochel, 90","latLng":{"lat":-2.53326898,"lng":-44.20773983}},{"_id":"57f65409e25c7c486ba3cf40","id":116175,"name":"P 4540 - R. São Jorge, 660-1042","latLng":{"lat":-2.60581945,"lng":-44.20114963999998}},{"_id":"57f6540ae25c7c486ba3cf5f","id":112476,"name":"P 2705 - Panificadora Moreno","latLng":{"lat":-2.54257032,"lng":-44.17570654}},{"_id":"57f65409e25c7c486ba3cf41","id":116225,"name":"P 1841 - BR-135","latLng":{"lat":-2.68815783,"lng":-44.30482507}},{"_id":"57f65409e25c7c486ba3cf02","id":113075,"name":"P 1161 - Av. Paulo Brandão, 679-757","latLng":{"lat":-2.5066068,"lng":-44.1810599}},{"_id":"57f65409e25c7c486ba3cf52","id":117075,"name":"P 2749 - Ponto Final","latLng":{"lat":-2.49383825,"lng":-44.18718338}},{"_id":"57f6540ae25c7c486ba3cf74","id":113526,"name":"P 2715 - Av. Oeste Externa, 3412-3498 - São Cristovao,","latLng":{"lat":-2.58290471,"lng":-44.20699418000004}},{"_id":"57f65409e25c7c486ba3cf48","id":116575,"name":"P 3744 - R. Duzentos e Cinco, 112-114","latLng":{"lat":-2.58076379,"lng":-44.20596958}},{"_id":"57f65409e25c7c486ba3cf49","id":116625,"name":"P 1045 - Av. Mascarenhas de Moraes, 797-917","latLng":{"lat":-2.56291828,"lng":-44.16985631}},{"_id":"57f6540ae25c7c486ba3cf66","id":112826,"name":"P 4458 - R. Santo Antônio, 193","latLng":{"lat":-2.60446633,"lng":-44.188089969999965}},{"_id":"57f65409e25c7c486ba3cf4c","id":116775,"name":"P 3346 - R. Cinco, 27-191","latLng":{"lat":-2.55991765,"lng":-44.27385628}},{"_id":"57f6540ae25c7c486ba3cf70","id":113326,"name":"P 3213 - R. Almeida Garrett, 772","latLng":{"lat":-2.55158383,"lng":-44.27136719}},{"_id":"57f6540ae25c7c486ba3cf71","id":113376,"name":"P 464 - Av. da Laranja","latLng":{"lat":-2.54904898,"lng":-44.18550968}},{"_id":"57f6540ae25c7c486ba3cf72","id":113426,"name":"P 2964 - Principal","latLng":{"lat":-2.62583199,"lng":-44.14686978}},{"_id":"57f6540ae25c7c486ba3cf75","id":113576,"name":"P 5215 - R. do Cacau,","latLng":{"lat":-2.75357076,"lng":-44.34944361}},{"_id":"57f65409e25c7c486ba3cef9","id":112625,"name":"P 4906 - R. Valê do Rio Doce, 10-94","latLng":{"lat":-2.54758862,"lng":-44.31773186}},{"_id":"57f65409e25c7c486ba3cefb","id":112725,"name":"P 4657 - R. sem nome","latLng":{"lat":-2.64569685,"lng":-44.31507915}},{"_id":"57f65409e25c7c486ba3cf26","id":114875,"name":"P 1928 - BR-135, 3922-4194","latLng":{"lat":-2.69519953,"lng":-44.30480361}},{"_id":"57f65409e25c7c486ba3cf2e","id":115275,"name":"P 1132 - Av. Oito, 530-560","latLng":{"lat":-2.54239294,"lng":-44.16558087}},{"_id":"57f65409e25c7c486ba3cf4e","id":116875,"name":"P 3147 - R. 13, 542-624","latLng":{"lat":-2.60376432,"lng":-44.23530221}},{"_id":"57f6540ae25c7c486ba3cf62","id":112626,"name":"P 4956 - R. Vitórino Freire, 11-17","latLng":{"lat":-2.60984663,"lng":-44.24103677}},{"_id":"57f65409e25c7c486ba3cf2b","id":115125,"name":"P 4030 - R. Jacinto Maia, 1003","latLng":{"lat":-2.53361465,"lng":-44.10862684}},{"_id":"57f65409e25c7c486ba3cf37","id":115725,"name":"P 2836 - Ponto Final Parque Vitória","latLng":{"lat":-2.51152394,"lng":-44.20938744}},{"_id":"57f65409e25c7c486ba3cf38","id":115775,"name":"P 137 - Av. Almeida Oliveira, 74","latLng":{"lat":-2.5454805135921243,"lng":-44.22142863702311}},{"_id":"57f65409e25c7c486ba3cf45","id":116428,"name":"P 1443 - Av. Sen. Vitórino Freire, 3250-3280","latLng":{"lat":-2.54196957,"lng":-44.29086685}},{"_id":"57f6540ae25c7c486ba3cf5c","id":112326,"name":"P 454 - Av. Contôrno, 6-16","latLng":{"lat":-2.53520632,"lng":-44.24971104}},{"_id":"57f65409e25c7c486ba3cf08","id":113375,"name":"P 414 - Av. Contôrno Norte Sul, 38","latLng":{"lat":-2.53932751,"lng":-44.20221984}},{"_id":"57f65409e25c7c486ba3cf0e","id":113675,"name":"P 4916 - R. Vila Regino, 20","latLng":{"lat":-2.62202189,"lng":-44.19172436}},{"_id":"57f65409e25c7c486ba3cf18","id":114175,"name":"P 3671 - R. do Ribeirão, 6","latLng":{"lat":-2.63934677,"lng":-44.27701056}},{"_id":"57f6540ae25c7c486ba3cf56","id":112026,"name":"P 1201 - Av. Pincipal, 708-736","latLng":{"lat":-2.53195866,"lng":-44.14670348}},{"_id":"57f6540ae25c7c486ba3cf5b","id":112276,"name":"P 3203 - R. Ademar, 468-482","latLng":{"lat":-2.54423649,"lng":-44.27927971}},{"_id":"57f6540ae25c7c486ba3cf5d","id":112376,"name":"P 2954 - Pracinha","latLng":{"lat":-2.56314872,"lng":-44.33529496}},{"_id":"57f6540ae25c7c486ba3cf7d","id":113976,"name":"P 4219 - R. Oito, 2-20","latLng":{"lat":-2.55935986,"lng":-44.1822964}},{"_id":"57f6540ae25c7c486ba3cf85","id":114376,"name":"P 3223 - R. Altamira, 43-119","latLng":{"lat":-2.48930424,"lng":-44.25454974}},{"_id":"57f6540ae25c7c486ba3cfad","id":116376,"name":"P 4192 - R. Nova, 509-663","latLng":{"lat":-2.52267085,"lng":-44.22242492}},{"_id":"57f6540ae25c7c486ba3cf76","id":113626,"name":"P 2466 - Fisior estar","latLng":{"lat":-2.56557637,"lng":-44.26517666}},{"_id":"57f6540ae25c7c486ba3cf8b","id":114676,"name":"P 2476 - Fribal Coroadinho","latLng":{"lat":-2.5666964,"lng":-44.273808}},{"_id":"57f6540ae25c7c486ba3cf8d","id":114776,"name":"P 2227 - Estr. de São José de Ribamar, 316-458","latLng":{"lat":-2.54470809,"lng":-44.08514142}},{"_id":"57f6540ae25c7c486ba3cf7f","id":114076,"name":"P 3970 - R. Grande, 58","latLng":{"lat":-2.67990632,"lng":-44.27223623}},{"_id":"57f6540ae25c7c486ba3cf99","id":115376,"name":"P 983 - Av. José Sarney, 446-494","latLng":{"lat":-2.5425296,"lng":-44.32949334}},{"_id":"57f6540ae25c7c486ba3cfb9","id":116976,"name":"P 2998 - R. da União 02","latLng":{"lat":-2.65148959,"lng":-44.17869687}},{"_id":"57f6540ae25c7c486ba3cfa9","id":116176,"name":"P 4590 - R. São Mateus, 60","latLng":{"lat":-2.56318087,"lng":-44.27234888}},{"_id":"57f6540ae25c7c486ba3cf9f","id":115676,"name":"P 386 - Av. Contôrno Leste, 223-291","latLng":{"lat":-2.53632907,"lng":-44.21181142}},{"_id":"57f6540ae25c7c486ba3cfbb","id":117076,"name":"P 2799 - Ponto Final Coheb","latLng":{"lat":-2.55925772,"lng":-44.25432711999997}},{"_id":"57f6540ae25c7c486ba3cf94","id":115126,"name":"P 4080 - R. José Andrade, 789-849","latLng":{"lat":-2.53267679,"lng":-44.14660156}},{"_id":"57f6540ae25c7c486ba3cfaf","id":116476,"name":"P 3993 - R. Heitor Augusto, 393-473","latLng":{"lat":-2.50968035,"lng":-44.25545633}},{"_id":"57f6540ae25c7c486ba3cf9a","id":115426,"name":"P 3483 - R. da Vitória, 349-399","latLng":{"lat":-2.51927878,"lng":-44.22258317}},{"_id":"57f6540ae25c7c486ba3cf98","id":115326,"name":"P 3682 - R. do Sol, 98","latLng":{"lat":-2.54859077,"lng":-44.33438837}},{"_id":"57f6540ae25c7c486ba3cfb6","id":116824,"name":"P 697 - Av. Edson Lobão, Res. Nova Vida - 09","latLng":{"lat":-2.62519697,"lng":-44.193905}},{"_id":"57f6540ae25c7c486ba3cf77","id":113676,"name":"P 4966 - R. Vitórino Freire, 80-150","latLng":{"lat":-2.61156682,"lng":-44.24165368}},{"_id":"57f6540ae25c7c486ba3cfb3","id":116663,"name":"P 3595 - R. do Cacau","latLng":{"lat":-2.75343413,"lng":-44.34934705}},{"_id":"57f6540ae25c7c486ba3cfb8","id":116926,"name":"P 498 - Av. Dep. Ulisses Guimarães, 21-45","latLng":{"lat":-2.48371978,"lng":-44.26013947}},{"_id":"57f6540ae25c7c486ba3cfa7","id":116076,"name":"P 4789 - R. Totóia, 163","latLng":{"lat":-2.55939738,"lng":-44.27837849}},{"_id":"57f6540ae25c7c486ba3cfc8","id":112477,"name":"P 2755 - Ponto Final 322 Av. dos Portugueses/Deodoro","latLng":{"lat":-2.5645903,"lng":-44.33313847}},{"_id":"57f6540ae25c7c486ba3cf9e","id":115626,"name":"P 3085 - Rio São Joaquim","latLng":{"lat":-2.68636871,"lng":-44.26617444}},{"_id":"57f6540ae25c7c486ba3cfbf","id":112027,"name":"P 1251 - Av. Principal, 03","latLng":{"lat":-2.56277358,"lng":-44.19475257}},{"_id":"57f6540ae25c7c486ba3cf7c","id":113926,"name":"P 1719 - Av. Trindade, 961-1201","latLng":{"lat":-2.56490113,"lng":-44.15171385}},{"_id":"57f6540ae25c7c486ba3cfb0","id":116526,"name":"P 1294 - Av. Principal, 68-70","latLng":{"lat":-2.56171785,"lng":-44.19095993}},{"_id":"57f6540ae25c7c486ba3cf87","id":114476,"name":"P 2974 - Principal","latLng":{"lat":-2.62912228,"lng":-44.15008038}},{"_id":"57f6540ae25c7c486ba3cfcf","id":112827,"name":"P 4508 - R. São Jerônimo, 151-165","latLng":{"lat":-2.6005865,"lng":-44.20665622}},{"_id":"57f6540ae25c7c486ba3cf8c","id":114726,"name":"P 4976 - São Luís Shopping","latLng":{"lat":-2.510227,"lng":-44.28685427}},{"_id":"57f6540ae25c7c486ba3cfaa","id":116226,"name":"P 1891 - BR-135, 16","latLng":{"lat":-2.74398754,"lng":-44.3409276}},{"_id":"57f6540ae25c7c486ba3cfbd","id":117175,"name":"P 2600 - MA-202, 10","latLng":{"lat":-2.51750487,"lng":-44.17527437}},{"_id":"57f6540ae25c7c486ba3cf90","id":114926,"name":"P 4478 - R. Santo Antônio, 8","latLng":{"lat":-2.50141633,"lng":-44.249480370000015}},{"_id":"57f6540ae25c7c486ba3cfbe","id":117226,"name":"P 5100 - Trav. Vitórino Freire, 1-95","latLng":{"lat":-2.61230634,"lng":-44.24573064}},{"_id":"57f6540ae25c7c486ba3cfb4","id":116726,"name":"P 896 - Av. João Castelo 09, Recanto Canaã","latLng":{"lat":-2.60685371,"lng":-44.22628462}},{"_id":"57f6540ae25c7c486ba3cf9b","id":115476,"name":"P 784 - Av. Gonçalves Dias, 1200-1320","latLng":{"lat":-2.55431161,"lng":-44.06032026}},{"_id":"57f6540ae25c7c486ba3cfc2","id":112177,"name":"P 3502 - R. das Flôres, 11","latLng":{"lat":-2.57362852,"lng":-44.30197924}},{"_id":"57f6540ae25c7c486ba3cf9d","id":115576,"name":"P 585 - Av. dos Curvos, 945-1021","latLng":{"lat":-2.6152537,"lng":-44.25670087000003}},{"_id":"57f6540ae25c7c486ba3cfa8","id":116126,"name":"P 2090 - Cruzamento c/ R. Aririzal","latLng":{"lat":-2.51647589,"lng":-44.22570527}},{"_id":"57f6540ae25c7c486ba3cfc9","id":112527,"name":"P 06 - Av. Jerônimo de Albuquerque, 432-610 - Cohafuma,","latLng":{"lat":-2.54613496,"lng":-44.21726837}},{"_id":"57f6540ae25c7c486ba3cfba","id":117026,"name":"P 299 - Av. Carlos Augusto, 364-422","latLng":{"lat":-2.51466446,"lng":-44.17994141}},{"_id":"57f6540ae25c7c486ba3cfab","id":116276,"name":"P 4391 - R. Projetada, 340-538","latLng":{"lat":-2.52724525,"lng":-44.22379821}},{"_id":"57f6540ae25c7c486ba3cf80","id":114126,"name":"P 1221 - Av. Pres. Médici, 4016-4056","latLng":{"lat":-2.55016367,"lng":-44.28392529}},{"_id":"57f6540ae25c7c486ba3cfb7","id":116876,"name":"P 3197 - R. Acre, 904-932","latLng":{"lat":-2.49894301,"lng":-44.21486378}},{"_id":"57f6540ae25c7c486ba3cf7e","id":114026,"name":"P 1470 - Av. Sol Nascente, 249-289","latLng":{"lat":-2.49464215,"lng":-44.21526074}},{"_id":"57f6540ae25c7c486ba3cf79","id":113776,"name":"P 4717 - R. sem nome","latLng":{"lat":-2.65267922,"lng":-44.316203}},{"_id":"57f6540ae25c7c486ba3cf81","id":114176,"name":"P 3721 - R. dos Eucalíptos, 224-236","latLng":{"lat":-2.54200173,"lng":-44.25137133}},{"_id":"57f6540ae25c7c486ba3cf86","id":114426,"name":"P 474 - Av. da Vitória, 1","latLng":{"lat":-2.44528176,"lng":-44.12980556}},{"_id":"57f6540ae25c7c486ba3cf84","id":114326,"name":"P 723 - Av. Eng. Emiliano Macieira, 201","latLng":{"lat":-2.57911859,"lng":-44.35179591}},{"_id":"57f6540ae25c7c486ba3cf82","id":114226,"name":"P 972 - Av. José Sarney, 1064-1210","latLng":{"lat":-2.58068341,"lng":-44.2204991}},{"_id":"57f6540ae25c7c486ba3cf97","id":115276,"name":"P 1182 - Av. Piancó, 103","latLng":{"lat":-2.57126765,"lng":-44.29801225}},{"_id":"57f6540ae25c7c486ba3cf89","id":114576,"name":"P 2725 - Parque das Laranjeiras","latLng":{"lat":-2.50857634,"lng":-44.24936771}},{"_id":"57f6540ae25c7c486ba3cfc6","id":112377,"name":"P 3004 - R. da União 08","latLng":{"lat":-2.65469407,"lng":-44.17727262}},{"_id":"57f6540ae25c7c486ba3cf8a","id":114626,"name":"P 5225 - Av. Quatro, 10 - Cidade Operária, São Luís","latLng":{"lat":-2.58393631,"lng":-44.18269873}},{"_id":"57f6540ae25c7c486ba3cf8e","id":114826,"name":"P 4727 - R. Sete, 1609-1737","latLng":{"lat":-2.56483682,"lng":-44.22697663}},{"_id":"57f6540ae25c7c486ba3cf92","id":115026,"name":"P 4279 - R. Principal 04","latLng":{"lat":-2.67210692,"lng":-44.1847989}},{"_id":"57f6540ae25c7c486ba3cfb1","id":116576,"name":"P 3794 - R. Evandro Bessa, 682-744","latLng":{"lat":-2.6366942,"lng":-44.27693009}},{"_id":"57f6540ae25c7c486ba3cf91","id":114976,"name":"P 1779 - Av. Um, 904-1014","latLng":{"lat":-2.53110655,"lng":-44.24590766}},{"_id":"57f6540ae25c7c486ba3cfa6","id":116026,"name":"P 2289 - Estr. do Guarapiranga - 15","latLng":{"lat":-2.65933467,"lng":-44.15419221}},{"_id":"57f6540ae25c7c486ba3cfae","id":116425,"name":"P 1493 - Av. Sta. Isabel, 53","latLng":{"lat":-2.50784569,"lng":-44.23816949}},{"_id":"57f6540ae25c7c486ba3cfa4","id":115926,"name":"P 2488 - Goiás Concreto","latLng":{"lat":-2.61292529,"lng":-44.26109701}},{"_id":"57f6540ae25c7c486ba3cfbc","id":117126,"name":"P 100 - Av. 1, 1911-1969","latLng":{"lat":-2.47651077,"lng":-44.16234612}},{"_id":"57f6540ae25c7c486ba3cfcc","id":112677,"name":"P 2257 - Estr. do Bom Jardim n. 1","latLng":{"lat":-2.63033336,"lng":-44.18054223}},{"_id":"57f6540ae25c7c486ba3cf7a","id":113826,"name":"P 1968 - BR-135, 98","latLng":{"lat":-2.66330006,"lng":-44.28562582}},{"_id":"57f6540ae25c7c486ba3cfa2","id":115826,"name":"P 2687 - Novo Horizonte, 6","latLng":{"lat":-2.52662091,"lng":-44.14726138}},{"_id":"57f6540ae25c7c486ba3cf95","id":115176,"name":"P 1381 - Av. São Paulo, 12-30","latLng":{"lat":-2.56085504,"lng":-44.18777883}},{"_id":"57f6540ae25c7c486ba3cfc5","id":112327,"name":"P 504 - Av. Dep. Ulisses Guimarães, 57","latLng":{"lat":-2.48278189,"lng":-44.24479187}},{"_id":"57f6540ae25c7c486ba3cfb5","id":116776,"name":"P 3396 - R. da Estrela, 2-22","latLng":{"lat":-2.5632425,"lng":-44.18829381}},{"_id":"57f6540ae25c7c486ba3cf96","id":115226,"name":"P 3881 - R. General Artur Carvalho, 28","latLng":{"lat":-2.49834008,"lng":-44.17385817}},{"_id":"57f6540ae25c7c486ba3cf9c","id":115526,"name":"P 3284 - R. Blumenau, 8","latLng":{"lat":-2.47984905,"lng":-44.20208573}},{"_id":"57f6540ae25c7c486ba3cf93","id":115076,"name":"P 1580 - Av. Tancredo Neves, 566","latLng":{"lat":-2.52389843,"lng":-44.15907383}},{"_id":"57f6540ae25c7c486ba3cfca","id":112577,"name":"P 2506 - Hospital Dutra","latLng":{"lat":-2.5247559,"lng":-44.29513961}},{"_id":"57f6540ae25c7c486ba3cfa0","id":115726,"name":"P 2886 - Ponto Final Vila Esperança","latLng":{"lat":-2.61088625,"lng":-44.26533759}},{"_id":"57f6540ae25c7c486ba3cfc7","id":112427,"name":"P 255 - Av. C, 448-498","latLng":{"lat":-2.54319146,"lng":-44.20084655}},{"_id":"57f6540ae25c7c486ba3cfc4","id":112277,"name":"P 3253 - R. Aririzal, 1719-1785","latLng":{"lat":-2.516371389301977,"lng":-44.22877639532089}},{"_id":"57f6540ae25c7c486ba3cfa5","id":115976,"name":"P 4988 - Senai Gapara","latLng":{"lat":-2.56700722,"lng":-44.31811809}},{"_id":"57f6540ae25c7c486ba3cfa1","id":115776,"name":"P 187 - Av. Atlântica, 5-7","latLng":{"lat":-2.47652748,"lng":-44.19706464}},{"_id":"57f6540ae25c7c486ba3cf78","id":113726,"name":"P 2217 - Estr. de Ribamar (Av. 12 - Maiobão)","latLng":{"lat":-2.55194825,"lng":-44.17104185}},{"_id":"57f6540ae25c7c486ba3cfb2","id":116626,"name":"P 1095 - Av. Oeste Externa, 2032-2110","latLng":{"lat":-2.57908107,"lng":-44.20641482}},{"_id":"57f6540ae25c7c486ba3cf7b","id":113876,"name":"P 4468 - R. Santo Antônio, 2297-2423","latLng":{"lat":-2.56325054,"lng":-44.21937525}},{"_id":"57f6540ae25c7c486ba3cfce","id":112777,"name":"P 2008 - Cemitério do São Cristóvão","latLng":{"lat":-2.57420439,"lng":-44.23655212}},{"_id":"57f6540ae25c7c486ba3cf83","id":114276,"name":"P 3472 - R. da Silva, 327-425","latLng":{"lat":-2.57396857,"lng":-44.2078498}},{"_id":"57f6540ae25c7c486ba3cfc0","id":112077,"name":"P 3751 - R. Duzentos e Cinco, 708","latLng":{"lat":-2.58346472,"lng":-44.20552433}},{"_id":"57f6540ae25c7c486ba3cf8f","id":114876,"name":"P 1978 - C.E Cruzeiro do Sul","latLng":{"lat":-2.54866044,"lng":-44.32997346}},{"_id":"57f6540ae25c7c486ba3cfcd","id":112727,"name":"P 4757 - R. Sta. Maria, Maiobinha (10)","latLng":{"lat":-2.56251099,"lng":-44.20638263}},{"_id":"57f6540ae25c7c486ba3cfa3","id":115876,"name":"P 5187 - Av. Eng. Emiliano Macieira, 160,","latLng":{"lat":-2.62850066,"lng":-44.3177104}},{"_id":"57f6540ae25c7c486ba3cfac","id":116326,"name":"P 1692 - Av. Trindade, 2725-2813","latLng":{"lat":-2.57551199,"lng":-44.16146636}},{"_id":"57f6540ae25c7c486ba3cfdd","id":113527,"name":"P 2765 - Ponto Final A891 e T096 Popular Ipase","latLng":{"lat":-2.5449975379161147,"lng":-44.226842522621155}},{"_id":"57f6540ae25c7c486ba3cfd0","id":112877,"name":"P 1759 - Av. Um, 214","latLng":{"lat":-2.53258568,"lng":-44.1692394}},{"_id":"57f6540ae25c7c486ba3d003","id":115427,"name":"P 3533 - R. Desterro, 104-108","latLng":{"lat":-2.52820187,"lng":-44.22361314}},{"_id":"57f6540ae25c7c486ba3cfeb","id":114227,"name":"P 1022 - Av. Maranhão n. 11, J. Lima/Vila São Luís","latLng":{"lat":-2.56872212,"lng":-44.18382525}},{"_id":"57f6540ae25c7c486ba3cfde","id":113577,"name":"P 16 - Av. Quatro, 938-994 - Forquilha,","latLng":{"lat":-2.54318878,"lng":-44.21666622}},{"_id":"57f6540ae25c7c486ba3cfe1","id":113727,"name":"P 2267 - Estr. do Coqueiro","latLng":{"lat":-2.73400505,"lng":-44.35411066}},{"_id":"57f6540ae25c7c486ba3cfdc","id":113477,"name":"P 265 - Av. Cajazeiras, 452-558","latLng":{"lat":-2.6050049,"lng":-44.20287699}},{"_id":"57f6540ae25c7c486ba3cfdf","id":113627,"name":"P 2516 - Igreja Católica, Bom Jardim","latLng":{"lat":-2.62172715,"lng":-44.16136444}},{"_id":"57f6540ae25c7c486ba3d00e","id":115977,"name":"P 5038 - Tibiri","latLng":{"lat":-2.61342902,"lng":-44.25161004}},{"_id":"57f6540ae25c7c486ba3cfec","id":114277,"name":"P 3522 - R. Dep. João Henrique, 253","latLng":{"lat":-2.54799323,"lng":-44.28202629}},{"_id":"57f6540ae25c7c486ba3d00f","id":116027,"name":"P 2339 - Estr. do Matadouro, 53","latLng":{"lat":-2.61356031,"lng":-44.2510736}},{"_id":"57f6540ae25c7c486ba3cff8","id":114877,"name":"P 2028 - Cesjo","latLng":{"lat":-2.57403556,"lng":-44.1983521}},{"_id":"57f6540ae25c7c486ba3cff9","id":114927,"name":"P 4528 - R. São Jorge, 18-20","latLng":{"lat":-2.59207655,"lng":-44.21662062}},{"_id":"57f6540ae25c7c486ba3cfd1","id":112927,"name":"P 4259 - R. Pescada, 1-111","latLng":{"lat":-2.44472437,"lng":-44.09360647}},{"_id":"57f6540ae25c7c486ba3cffc","id":115077,"name":"P 1630 - Av. Transrural 20 - Coquilho","latLng":{"lat":-2.66425389,"lng":-44.18473721}},{"_id":"57f6540ae25c7c486ba3cfd8","id":113277,"name":"P 763 - Av. Existente, 7","latLng":{"lat":-2.54676063,"lng":-44.20760036}},{"_id":"57f6540ae25c7c486ba3d000","id":115277,"name":"P 1232 - Av. Pres. Sarney, 360","latLng":{"lat":-2.52467015,"lng":-44.16424513}},{"_id":"57f6540ae25c7c486ba3cfd5","id":113127,"name":"P 3761 - R. Edílson Lobão, 765-821","latLng":{"lat":-2.52678704,"lng":-44.16154146}},{"_id":"57f6540ae25c7c486ba3cfed","id":114327,"name":"P 773 - Av. Gervásio, 2-34","latLng":{"lat":-2.52102589,"lng":-44.16559696}},{"_id":"57f6540ae25c7c486ba3cfd9","id":113327,"name":"P 3263 - R. Armando Viêira Silva, 419-519","latLng":{"lat":-2.54243046,"lng":-44.28063691}},{"_id":"57f6540ae25c7c486ba3cfd4","id":113077,"name":"P 1261 - Av. Principal, 144","latLng":{"lat":-2.56100509,"lng":-44.18780565}},{"_id":"57f6540ae25c7c486ba3cfda","id":113377,"name":"P 514 - Av. do Fio, 11","latLng":{"lat":-2.52932998,"lng":-44.18676227}},{"_id":"57f6540ae25c7c486ba3cfd3","id":113027,"name":"P 4010 - R. Itaituba, 1-9","latLng":{"lat":-2.54968135,"lng":-44.28659141}},{"_id":"57f6540ae25c7c486ba3cff6","id":114777,"name":"P 2277 - Estr. do Guarapiranga - 03","latLng":{"lat":-2.64242268,"lng":-44.17255998}},{"_id":"57f6540ae25c7c486ba3cff1","id":114527,"name":"P 275 - Av. Cajueiro, 9","latLng":{"lat":-2.59138524,"lng":-44.30851042}},{"_id":"57f6540ae25c7c486ba3cfe4","id":113877,"name":"P 4518 - R. São João n.1, Bom Jardim","latLng":{"lat":-2.62427794,"lng":-44.17439461}},{"_id":"57f6540ae25c7c486ba3cfe7","id":114027,"name":"P 1520 - Av. Sta. Rosa - 26","latLng":{"lat":-2.64318898,"lng":-44.19997752}},{"_id":"57f6540ae25c7c486ba3cfe5","id":113927,"name":"P 1769 - Av. Um, 386-434","latLng":{"lat":-2.55768216,"lng":-44.25691009}},{"_id":"57f6540ae25c7c486ba3cfd2","id":112977,"name":"P 1510 - Av. Sta. Rosa - 16","latLng":{"lat":-2.64937559,"lng":-44.20951277}},{"_id":"57f6540ae25c7c486ba3cfdb","id":113427,"name":"P 3014 - R. Porto","latLng":{"lat":-2.54259659,"lng":-44.24307525}},{"_id":"57f6540ae25c7c486ba3cfe8","id":114077,"name":"P 4020 - R. Itapiruco, 56","latLng":{"lat":-2.5216422,"lng":-44.18503761}},{"_id":"57f6540ae25c7c486ba3cfe3","id":113827,"name":"P 2018 - Centro de Saude do Coquilho","latLng":{"lat":-2.66625265,"lng":-44.1868937}},{"_id":"57f6540ae25c7c486ba3cffb","id":115027,"name":"P 4329 - R. Principal, 2878","latLng":{"lat":-2.49526383,"lng":-44.15203571}},{"_id":"57f6540ae25c7c486ba3d00d","id":115927,"name":"P 2538 - João Paulo","latLng":{"lat":-2.54470541,"lng":-44.27152276}},{"_id":"57f6540ae25c7c486ba3cfea","id":114177,"name":"P 3771 - R. Eliéser Silva, 948-1082","latLng":{"lat":-2.56276287,"lng":-44.21645164}},{"_id":"57f6540ae25c7c486ba3cfe6","id":113977,"name":"P 4269 - R. Primeiro de Maio, 242-270","latLng":{"lat":-2.54485278,"lng":-44.23989952}},{"_id":"57f6540ae25c7c486ba3cffe","id":115177,"name":"Ponto Final - Vila Nova","latLng":{"lat":-2.53416128,"lng":-44.32974279000001}},{"_id":"57f6540ae25c7c486ba3cfff","id":115227,"name":"P 3931 - R. General Artur Carvalho, 953-1001","latLng":{"lat":-2.51386058,"lng":-44.21762109}},{"_id":"57f6540ae25c7c486ba3cff0","id":114477,"name":"P 3024 - Recanto Verde","latLng":{"lat":-2.58950426,"lng":-44.25091803}},{"_id":"57f6540ae25c7c486ba3cfef","id":114427,"name":"P 524 - Av. do Sabiá, 214-354","latLng":{"lat":-2.56855867,"lng":-44.31760043}},{"_id":"57f6540ae25c7c486ba3cfd6","id":113177,"name":"P 1012 - Av. Luísão, 187-195","latLng":{"lat":-2.49024213,"lng":-44.21295941}},{"_id":"57f6540ae25c7c486ba3cffd","id":115127,"name":"P 4130 - R. N. Sra. da Conceição n.6, Bom Jardim","latLng":{"lat":-2.62982696,"lng":-44.15195793}},{"_id":"57f6540ae25c7c486ba3d005","id":115527,"name":"P 3334 - R. Cento e Três, 2-20","latLng":{"lat":-2.56427412,"lng":-44.19532657}},{"_id":"57f6540ae25c7c486ba3cfe2","id":113777,"name":"P 4767 - R. Sta. Mônica, 167-199","latLng":{"lat":-2.60163684,"lng":-44.23394501}},{"_id":"57f6540ae25c7c486ba3d00b","id":115827,"name":"P 2737 - Pitangueiras II","latLng":{"lat":-2.54590317,"lng":-44.10501122}},{"_id":"57f6540ae25c7c486ba3cff3","id":114627,"name":"P 26 - Al. Chapadinha, 636-694","latLng":{"lat":-2.57552806,"lng":-44.18214083}},{"_id":"57f6540ae25c7c486ba3cfe9","id":114127,"name":"P 1271 - Av. Principal, 2638-3326","latLng":{"lat":-2.49977638,"lng":-44.10426021}},{"_id":"57f6540ae25c7c486ba3cff7","id":114827,"name":"P 4777 - R. Tancredo Neves","latLng":{"lat":-2.64440272,"lng":-44.27827656}},{"_id":"57f6540ae25c7c486ba3d002","id":115377,"name":"P 1033 - Av. Mascarenhas de Moraes, 1021-1223","latLng":{"lat":-2.56098902,"lng":-44.17022109}},{"_id":"57f6540ae25c7c486ba3cff4","id":114677,"name":"P 2526 - Inhaúma 2","latLng":{"lat":-2.73363532,"lng":-44.33649659}},{"_id":"57f6540ae25c7c486ba3cff2","id":114577,"name":"P 2775 - Ponto Final Alto do Calhau","latLng":{"lat":-2.49437418,"lng":-44.25608933000001}},{"_id":"57f6540ae25c7c486ba3d008","id":115677,"name":"P 436 - Av. Contôrno Norte, 955-993","latLng":{"lat":-2.53570472,"lng":-44.20287967}},{"_id":"57f6540ae25c7c486ba3d004","id":115477,"name":"P 834 - Av. J Sarney, 2-60","latLng":{"lat":-2.58488752,"lng":-44.31189269}},{"_id":"57f6540ae25c7c486ba3cffa","id":114977,"name":"P 1829 - BR-135","latLng":{"lat":-2.73019528,"lng":-44.3595314}},{"_id":"57f6540ae25c7c486ba3d006","id":115577,"name":"P 635 - Av. dos Holandeses, 302-370","latLng":{"lat":-2.50023728,"lng":-44.31069374}},{"_id":"57f6540ae25c7c486ba3d00c","id":115877,"name":"P 38 - Al. Jaú, 1022-1046","latLng":{"lat":-2.49052617,"lng":-44.22353268}},{"_id":"57f6540ae25c7c486ba3d007","id":115627,"name":"P 3135 - R. 12 , 1729","latLng":{"lat":-2.5793785,"lng":-44.21473771}},{"_id":"57f6540ae25c7c486ba3d00a","id":115777,"name":"P 237 - Av. Brasil, 6","latLng":{"lat":-2.58867898,"lng":-44.1888088}},{"_id":"57f6540ae25c7c486ba3cfee","id":114377,"name":"P 3273 - R. Barão de Tefé, 418-486","latLng":{"lat":-2.56663745,"lng":-44.21378553}},{"_id":"57f6540ae25c7c486ba3d001","id":115327,"name":"P 3732 - R. Doze, 280-322","latLng":{"lat":-2.53341636,"lng":-44.23574746}},{"_id":"57f6540ae25c7c486ba3d021","id":116927,"name":"P 548 - Av. Dois, 3","latLng":{"lat":-2.5903992,"lng":-44.18267727}},{"_id":"57f6540ae25c7c486ba3d016","id":116377,"name":"P 4242 - R. Paraíso, 16","latLng":{"lat":-2.56047991,"lng":-44.2773056}},{"_id":"57f6540ae25c7c486ba3d01d","id":116727,"name":"P 946 - Av. Joaquim Mochel, 8","latLng":{"lat":-2.55768783,"lng":-44.27841067}},{"_id":"57f6540ae25c7c486ba3d02e","id":112328,"name":"P 554 - Av. Dois, 401-531","latLng":{"lat":-2.5701637,"lng":-44.22880322}},{"_id":"57f6540ae25c7c486ba3d030","id":112428,"name":"P 305 - Av. Carlos Augusto, 680-758","latLng":{"lat":-2.50668988,"lng":-44.18090701}},{"_id":"57f6540ae25c7c486ba3d015","id":116327,"name":"P 1742 - Av. Ulisses Guimarães, 8831-8897","latLng":{"lat":-2.48844674,"lng":-44.28182244}},{"_id":"57f6540ae25c7c486ba3d017","id":116426,"name":"P 1543 - Av. Tales Neto, 82-94","latLng":{"lat":-2.56017712,"lng":-44.23057347}},{"_id":"57f6540ae25c7c486ba3d026","id":117177,"name":"P 2650 - Mateus Supermercado","latLng":{"lat":-2.51632048,"lng":-44.2463851}},{"_id":"57f6540ae25c7c486ba3d024","id":117077,"name":"P 2849 - Ponto Final Residencial Turiuba","latLng":{"lat":-2.56422857,"lng":-44.10293519}},{"_id":"57f6540ae25c7c486ba3d019","id":116527,"name":"P 1344 - Av. Santos Dumont, 1173-1219","latLng":{"lat":-2.56028698,"lng":-44.23884809}},{"_id":"57f6540ae25c7c486ba3d033","id":112578,"name":"P 2556 - MA-201, 11000","latLng":{"lat":-2.55174996,"lng":-44.16305423}},{"_id":"57f6540ae25c7c486ba3d036","id":112728,"name":"P 4807 - R. Três, 547","latLng":{"lat":-2.54086023,"lng":-44.24386919}},{"_id":"57f6540ae25c7c486ba3d04a","id":113728,"name":"P 2317 - Estr. do Guarapiranga - 41","latLng":{"lat":-2.65531568,"lng":-44.15673763}},{"_id":"57f6540ae25c7c486ba3d031","id":112478,"name":"P 2805 - Ponto Final das Vans","latLng":{"lat":-2.5281054,"lng":-44.14766103}},{"_id":"57f6540ae25c7c486ba3d032","id":112528,"name":"P 56 - Ana Neri","latLng":{"lat":-2.52508281,"lng":-44.295955}},{"_id":"57f6540ae25c7c486ba3d041","id":113278,"name":"P 813 - Av. Granja 05 - Vila Cascavel","latLng":{"lat":-2.59374317,"lng":-44.22281384}},{"_id":"57f6540ae25c7c486ba3d055","id":114278,"name":"P 3572 - R. do Arame 07 - Pontal da Ilha/S. Raimundo","latLng":{"lat":-2.59828217,"lng":-44.22265559}},{"_id":"57f6540ae25c7c486ba3d013","id":116227,"name":"P 1941 - BR-135, 5000","latLng":{"lat":-2.67119864,"lng":-44.29112434}},{"_id":"57f6540ae25c7c486ba3d012","id":116177,"name":"P 4640 - R. Seis, 975-1059","latLng":{"lat":-2.5677307,"lng":-44.2222023}},{"_id":"57f6540ae25c7c486ba3d042","id":113328,"name":"P 3313 - R. Cajueiro, 47-143","latLng":{"lat":-2.58851286,"lng":-44.30043966}},{"_id":"57f6540ae25c7c486ba3d01a","id":116577,"name":"P 3844 - R. General Artur Carvalho","latLng":{"lat":-2.50030159,"lng":-44.14859176}},{"_id":"57f6540ae25c7c486ba3d040","id":113228,"name":"P 3562 - R. Dinamarca, 235-285","latLng":{"lat":-2.56221624,"lng":-44.32871014}},{"_id":"57f6540ae25c7c486ba3d01f","id":116825,"name":"P 747 - Av. Esteban Duzentos e Três, 51-61","latLng":{"lat":-2.56821837,"lng":-44.19912457}},{"_id":"57f6540ae25c7c486ba3d049","id":113678,"name":"P 5066 - Trav. Milton Bispo, 234-298","latLng":{"lat":-2.62464234,"lng":-44.26668405999999}},{"_id":"57f6540ae25c7c486ba3d01c","id":116666,"name":"P 3645 - R. do Norte, 282-364","latLng":{"lat":-2.56287541,"lng":-44.21636581}},{"_id":"57f6540ae25c7c486ba3d029","id":112078,"name":"P 3801 - R. Evandro Bessa, 78-A","latLng":{"lat":-2.61179189,"lng":-44.24786568}},{"_id":"57f6540ae25c7c486ba3d020","id":116877,"name":"P 3247 - R. Aririzal, 1-303","latLng":{"lat":-2.51286376,"lng":-44.24284995}},{"_id":"57f6540ae25c7c486ba3d04c","id":113828,"name":"P 2068 - COMABEL","latLng":{"lat":-2.53348603,"lng":-44.28555876}},{"_id":"57f6540ae25c7c486ba3d02d","id":112278,"name":"P 3303 - R. Bom Jesus, 99-155","latLng":{"lat":-2.55714121,"lng":-44.23339248}},{"_id":"57f6540ae25c7c486ba3d01e","id":116777,"name":"P 3446 - R. da prainha","latLng":{"lat":-2.52831486,"lng":-44.32206631}},{"_id":"57f6540ae25c7c486ba3d04b","id":113778,"name":"P 4817 - R. Treze de Maio, 1-35","latLng":{"lat":-2.56839522,"lng":-44.26329374}},{"_id":"57f6540ae25c7c486ba3d04d","id":113878,"name":"P 4568 - R. São José, 7-B","latLng":{"lat":-2.61769733,"lng":-44.25835848}},{"_id":"57f6540ae25c7c486ba3d023","id":117027,"name":"P 349 - Av. Cônego Ribamar de Carvalho, 152-178","latLng":{"lat":-2.55858838,"lng":-44.30319428}},{"_id":"57f6540ae25c7c486ba3d037","id":112778,"name":"P 2058 - Cohafuma","latLng":{"lat":-2.50717489,"lng":-44.26572651}},{"_id":"57f6540ae25c7c486ba3d02f","id":112378,"name":"P 3054 - Res. Ribeira","latLng":{"lat":-2.63449711,"lng":-44.25458998}},{"_id":"57f6540ae25c7c486ba3d03a","id":112928,"name":"P 4309 - R. Principal, 184-458","latLng":{"lat":-2.62040889,"lng":-44.21403229}},{"_id":"57f6540ae25c7c486ba3d011","id":116127,"name":"P 2140 - Entrada Socorrão II","latLng":{"lat":-2.55423926,"lng":-44.19650137}},{"_id":"57f6540ae25c7c486ba3d046","id":113528,"name":"P 2815 - Ponto Final Guarapiranga - Praia de Guarapiranga","latLng":{"lat":-2.68070742,"lng":-44.14269894}},{"_id":"57f6540ae25c7c486ba3d03b","id":112978,"name":"P 1560 - Av. Tancredo Neves, 1462-1494","latLng":{"lat":-2.56221624,"lng":-44.19506639}},{"_id":"57f6540ae25c7c486ba3d03e","id":113128,"name":"P 3811 - R. Festa do Divino, 300-322","latLng":{"lat":-2.561911,"lng":-44.27515179}},{"_id":"57f6540ae25c7c486ba3d028","id":112028,"name":"P 1301 - Av. Principal, 83","latLng":{"lat":-2.56176608,"lng":-44.19150174}},{"_id":"57f6540ae25c7c486ba3d027","id":117227,"name":"P 5150 - Av. dos Portugueses, 4992-5266 - Anjo da Guarda,","latLng":{"lat":-2.5509193,"lng":-44.30676162}},{"_id":"57f6540ae25c7c486ba3d010","id":116077,"name":"P 4839 - R. Trinta e Seis, C11","latLng":{"lat":-2.55011007,"lng":-44.21229423}},{"_id":"57f6540ae25c7c486ba3d048","id":113628,"name":"P 2566 - MA-201, 15","latLng":{"lat":-2.55323979,"lng":-44.13438678}},{"_id":"57f6540ae25c7c486ba3d035","id":112678,"name":"P 2307 - Estr. do Guarapiranga - 31 - Guarapiranga","latLng":{"lat":-2.67102181,"lng":-44.14684027}},{"_id":"57f6540ae25c7c486ba3d014","id":116277,"name":"P 4441 - R. Rio Cedro, 10","latLng":{"lat":-2.58412923,"lng":-44.18421149}},{"_id":"57f6540ae25c7c486ba3d052","id":114128,"name":"P 1321 - Av. Quatro, 1479-1593","latLng":{"lat":-2.54760202,"lng":-44.21531439}},{"_id":"57f6540ae25c7c486ba3d03c","id":113028,"name":"P 4060 - R. Jairzinho, 8-10","latLng":{"lat":-2.56526822,"lng":-44.31966841}},{"_id":"57f6540ae25c7c486ba3d043","id":113378,"name":"P 564 - Av. Dois, 8A","latLng":{"lat":-2.59151386,"lng":-44.18250561}},{"_id":"57f6540ae25c7c486ba3d03f","id":113178,"name":"P 1062 - Av. Norte Interna, 192-300","latLng":{"lat":-2.56710369,"lng":-44.20466065}},{"_id":"57f6540ae25c7c486ba3d051","id":114078,"name":"P 4070 - R. João Damásio Pinheiro, Maiobinha (02)","latLng":{"lat":-2.55896329,"lng":-44.20768619}},{"_id":"57f6540ae25c7c486ba3d044","id":113428,"name":"P 3064 - Res. Ribeira","latLng":{"lat":-2.63527413,"lng":-44.25207675}},{"_id":"57f6540ae25c7c486ba3d018","id":116477,"name":"P 4043 - R. Jaguarana, 597-601","latLng":{"lat":-2.55444023,"lng":-44.10208225}},{"_id":"57f6540ae25c7c486ba3d045","id":113478,"name":"P 315 - Av. Celso Coutinho, 20","latLng":{"lat":-2.52726937,"lng":-44.22058761}},{"_id":"57f6540ae25c7c486ba3d01b","id":116627,"name":"P 1145 - Av. Paraíso, 1581","latLng":{"lat":-2.57150345,"lng":-44.1751349}},{"_id":"57f6540ae25c7c486ba3d053","id":114178,"name":"P 3821 - R. Gabriela Mistral, 15","latLng":{"lat":-2.543789,"lng":-44.25408572}},{"_id":"57f6540ae25c7c486ba3d025","id":117127,"name":"P 150 - Av. Antares, 478-498","latLng":{"lat":-2.51865978,"lng":-44.26216453}},{"_id":"57f6540ae25c7c486ba3d02a","id":112128,"name":"P 1052 - Av. Mato Grosso, 406-478","latLng":{"lat":-2.51117291,"lng":-44.22014237}},{"_id":"57f6540ae25c7c486ba3d02b","id":112178,"name":"P 3552 - R. Dezesseis, Cohaserma","latLng":{"lat":-2.50656661,"lng":-44.24634755}},{"_id":"57f6540ae25c7c486ba3d039","id":112878,"name":"P 1809 - Banco do Brasil","latLng":{"lat":-2.56724838,"lng":-44.23111796}},{"_id":"57f6540ae25c7c486ba3d02c","id":112228,"name":"P 803 - Av. Gov. Luís Rocha, 1950","latLng":{"lat":-2.5305492,"lng":-44.27961767}},{"_id":"57f6540ae25c7c486ba3d04e","id":113928,"name":"P 1819 - Barraca de Pau","latLng":{"lat":-2.57412937,"lng":-44.20492351}},{"_id":"57f6540ae25c7c486ba3d047","id":113578,"name":"P 66 - antigo ponto final do rio grande","latLng":{"lat":-2.65231527,"lng":-44.29492772000003}},{"_id":"57f6540ae25c7c486ba3d054","id":114228,"name":"P 1072 - Av. Norte Interna, 801-881","latLng":{"lat":-2.56488505,"lng":-44.2006427}},{"_id":"57f6540ae25c7c486ba3d04f","id":113978,"name":"P 4319 - R. Principal, 220-590","latLng":{"lat":-2.61254481,"lng":-44.2162773}},{"_id":"57f6540ae25c7c486ba3d034","id":112628,"name":"P 5056 - Trav. da R. Nova, 88-270","latLng":{"lat":-2.55393647,"lng":-44.32033896}},{"_id":"57f6540ae25c7c486ba3d038","id":112828,"name":"P 4558 - R. São José, 447-635","latLng":{"lat":-2.57730189,"lng":-44.17646527}},{"_id":"57f6540ae25c7c486ba3d03d","id":113078,"name":"P 1311 - Av. Projetada, 21","latLng":{"lat":-2.54418022,"lng":-44.25539464}},{"_id":"57f6540ae25c7c486ba3d056","id":114328,"name":"P 823 - Av. Guaxenduba, 1512","latLng":{"lat":-2.54211427,"lng":-44.28382874}},{"_id":"57f6540ae25c7c486ba3d057","id":114378,"name":"P 3323 - R. Carlos Macieira 2","latLng":{"lat":-2.53702308,"lng":-44.26739752}},{"_id":"57f6540ae25c7c486ba3d063","id":114978,"name":"P 1879 - BR-135, 107-406","latLng":{"lat":-2.64621128,"lng":-44.27583039}},{"_id":"57f6540ae25c7c486ba3d079","id":116078,"name":"P 4889 - R. Um, 38","latLng":{"lat":-2.5561069,"lng":-44.26501572}},{"_id":"57f6540ae25c7c486ba3d060","id":114828,"name":"P 4827 - R. Trinta e Oito, 1323-1383","latLng":{"lat":-2.57585496,"lng":-44.22572404}},{"_id":"57f6540ae25c7c486ba3d068","id":115228,"name":"P 3981 - R. Gregório de Matos, 173-199","latLng":{"lat":-2.52682456,"lng":-44.28510546}},{"_id":"57f6540ae25c7c486ba3d074","id":115828,"name":"P 2787 - Ponto Final Cajueiro","latLng":{"lat":-2.62634643,"lng":-44.35545981000001}},{"_id":"57f6540ae25c7c486ba3d05e","id":114728,"name":"P 5076 - Trav. Rio Grande do Sul, 2-46","latLng":{"lat":-2.56786467,"lng":-44.18583691}},{"_id":"57f6540ae25c7c486ba3d081","id":116478,"name":"P 4093 - R. Juazeiro do Norte n. 2, Vila São Luís","latLng":{"lat":-2.56221088,"lng":-44.18270946}},{"_id":"57f6540ae25c7c486ba3d066","id":115128,"name":"P 4180 - R. Nova Jerusalém, 667-797","latLng":{"lat":-2.57320762,"lng":-44.22814608}},{"_id":"57f6540ae25c7c486ba3d065","id":115078,"name":"P 1680 - Av. Trindade, 1344-1484","latLng":{"lat":-2.56669104,"lng":-44.1538918}},{"_id":"57f6540ae25c7c486ba3d069","id":115278,"name":"P 1282 - Av. Principal, 414-490","latLng":{"lat":-2.42306631,"lng":-44.10239875}},{"_id":"57f6540ae25c7c486ba3d076","id":115928,"name":"P 2588 - MA-201, 5","latLng":{"lat":-2.55248952,"lng":-44.18714046}},{"_id":"57f6540ae25c7c486ba3d073","id":115778,"name":"P 287 - Av. Caracoeiras 07 - Mato Grosso","latLng":{"lat":-2.66875512,"lng":-44.18249488}},{"_id":"57f6540ae25c7c486ba3d06e","id":115528,"name":"P 3384 - R. da Caema, 380-440","latLng":{"lat":-2.49704581,"lng":-44.25598472}},{"_id":"57f6540ae25c7c486ba3d0a4","id":112979,"name":"P 1610 - Av. Tiradentes, 916-1102","latLng":{"lat":-2.56621409,"lng":-44.21607077}},{"_id":"57f6540ae25c7c486ba3d072","id":115728,"name":"P 2986 - Pró Verde","latLng":{"lat":-2.5350777,"lng":-44.17194039}},{"_id":"57f6540ae25c7c486ba3d085","id":116670,"name":"P 3695 - R. Dois, 423-497","latLng":{"lat":-2.54852378,"lng":-44.16393399}},{"_id":"57f6540ae25c7c486ba3d071","id":115678,"name":"P 486 - Av. de Sta.na, 2280-2284","latLng":{"lat":-2.58401133,"lng":-44.1809392}},{"_id":"57f6540ae25c7c486ba3d089","id":116878,"name":"P 3297 - R. Bolívia, 62-118","latLng":{"lat":-2.55790353,"lng":-44.32615936}},{"_id":"57f6540ae25c7c486ba3d05c","id":114628,"name":"P 76 - Assembléia Legislativa","latLng":{"lat":-2.50308843,"lng":-44.26942259}},{"_id":"57f6540ae25c7c486ba3d07b","id":116178,"name":"P 4690 - R. sem nome","latLng":{"lat":-2.66109766,"lng":-44.19383794}},{"_id":"57f6540ae25c7c486ba3d093","id":112129,"name":"P 1102 - Av. Oeste Interna, 24","latLng":{"lat":-2.57065137,"lng":-44.20626998}},{"_id":"57f6540ae25c7c486ba3d077","id":115978,"name":"P 5088 - Trav. São José, 02","latLng":{"lat":-2.59355025,"lng":-44.19740796}},{"_id":"57f6540ae25c7c486ba3d0a7","id":113129,"name":"P 3861 - R. General Artur Carvalho, 1202-1270","latLng":{"lat":-2.51216705,"lng":-44.21678424}},{"_id":"57f6540ae25c7c486ba3d075","id":115878,"name":"P 88 - Av. 01, 174","latLng":{"lat":-2.53626743,"lng":-44.15753424}},{"_id":"57f6540ae25c7c486ba3d097","id":112329,"name":"P 604 - Av. dos Holandeses, 1184-1272","latLng":{"lat":-2.49285749,"lng":-44.29117262}},{"_id":"57f6540ae25c7c486ba3d07f","id":116378,"name":"P 4292 - R. Principal, 14-68","latLng":{"lat":-2.6089517,"lng":-44.23432589}},{"_id":"57f6540ae25c7c486ba3d099","id":112429,"name":"P 355 - Av. Cônego Ribamar de Carvalho, 83","latLng":{"lat":-2.55853188,"lng":-44.30317283}},{"_id":"57f6540ae25c7c486ba3d078","id":116028,"name":"P 2389 - Estr. para Boa Viagem, 34","latLng":{"lat":-2.56366854,"lng":-44.1186583}},{"_id":"57f6540ae25c7c486ba3d086","id":116728,"name":"P 996 - Av. Lourenço Vieira da Silva, 1433-1559","latLng":{"lat":-2.5720688,"lng":-44.21987414}},{"_id":"57f6540ae25c7c486ba3d05f","id":114778,"name":"P 2327 - Estr. do Guarapiranga - 51","latLng":{"lat":-2.64055249,"lng":-44.17522073}},{"_id":"57f6540ae25c7c486ba3d09e","id":112679,"name":"P 2357 - Estr. do Quebra Pote, 19","latLng":{"lat":-2.70389631,"lng":-44.2379415}},{"_id":"57f6540ae25c7c486ba3d0a3","id":112929,"name":"P 4359 - R. Principal, 704-1116","latLng":{"lat":-2.61466423,"lng":-44.21404839}},{"_id":"57f6540ae25c7c486ba3d08c","id":117028,"name":"P 399 - Av. Contôrno Leste, 499-507","latLng":{"lat":-2.53375399,"lng":-44.16173458}},{"_id":"57f6540ae25c7c486ba3d090","id":117228,"name":"P 5200 - R. Vila Regino, 22,","latLng":{"lat":-2.62441727,"lng":-44.19066221}},{"_id":"57f6540ae25c7c486ba3d087","id":116778,"name":"P 3496 - R. das Acácias, 5","latLng":{"lat":-2.552243,"lng":-44.23897147}},{"_id":"57f6540ae25c7c486ba3d0aa","id":113279,"name":"P 863 - Av. Jerônimo Albuquerque, 1447-1775","latLng":{"lat":-2.52719702,"lng":-44.23919946}},{"_id":"57f6540ae25c7c486ba3d080","id":116427,"name":"P 1593 - Av. Tancredo Neves, 704","latLng":{"lat":-2.52138495,"lng":-44.15947616}},{"_id":"57f6540ae25c7c486ba3d096","id":112279,"name":"P 3353 - R. Clodomir Cardoso, 860-930","latLng":{"lat":-2.55066207,"lng":-44.07467544}},{"_id":"57f6540ae25c7c486ba3d092","id":112079,"name":"P 3851 - R. General Artur Carvalho, 1-167","latLng":{"lat":-2.51706541,"lng":-44.22470212}},{"_id":"57f6540ae25c7c486ba3d05b","id":114578,"name":"P 2825 - Ponto Final Maioba Porto","latLng":{"lat":-2.47222922,"lng":-44.12273526}},{"_id":"57f6540ae25c7c486ba3d091","id":112029,"name":"P 1351 - Av. Santos Dumont, 1900-2554","latLng":{"lat":-2.56781644,"lng":-44.2381078}},{"_id":"57f6540ae25c7c486ba3d09c","id":112579,"name":"P 2606 - MA-202, 25333","latLng":{"lat":-2.52247823,"lng":-44.17722702}},{"_id":"57f6540ae25c7c486ba3d05d","id":114678,"name":"P 2576 - MA-201, 292","latLng":{"lat":-2.54946699,"lng":-44.11990285}},{"_id":"57f6540ae25c7c486ba3d059","id":114478,"name":"P 3074 - Residencial São José I/Mix Mateus","latLng":{"lat":-2.5681755,"lng":-44.18869346}},{"_id":"57f6540ae25c7c486ba3d06a","id":115328,"name":"P 3782 - R. Estrela, 1-85","latLng":{"lat":-2.51113808,"lng":-44.18575644}},{"_id":"57f6540ae25c7c486ba3d061","id":114878,"name":"P 2078 - Comunidade São Francisco de Assis","latLng":{"lat":-2.53442083,"lng":-44.16981161}},{"_id":"57f6540ae25c7c486ba3d07d","id":116278,"name":"P 4491 - R. São Carmelo, 2-16","latLng":{"lat":-2.56071035,"lng":-44.24490452}},{"_id":"57f6540ae25c7c486ba3d062","id":114928,"name":"P 4578 - R. São Luís, 41-139","latLng":{"lat":-2.5488882,"lng":-44.22655821}},{"_id":"57f6540ae25c7c486ba3d08a","id":116928,"name":"P 598 - Av. dos Franceses, Caratatiua","latLng":{"lat":-2.53976964,"lng":-44.2663461}},{"_id":"57f6540ae25c7c486ba3d06b","id":115378,"name":"P 1083 - Av. Norte, Res. Nova Vida - 08","latLng":{"lat":-2.62294896,"lng":-44.19776469}},{"_id":"57f6540ae25c7c486ba3d067","id":115178,"name":"P 1481 - Av. Sol Nascente, 913-949","latLng":{"lat":-2.48880046,"lng":-44.21609223}},{"_id":"57f6540ae25c7c486ba3d06c","id":115428,"name":"P 3583 - R. do Arame, 63","latLng":{"lat":-2.56632127,"lng":-44.27321792}},{"_id":"57f6540ae25c7c486ba3d0a5","id":113029,"name":"P 4110 - R. Marli Sarney, 35-63","latLng":{"lat":-2.58681943,"lng":-44.20637727}},{"_id":"57f6540ae25c7c486ba3d07c","id":116228,"name":"P 1991 - Carone","latLng":{"lat":-2.56457958,"lng":-44.33295608}},{"_id":"57f6540ae25c7c486ba3d08d","id":117078,"name":"P 2899 - Ponto Final Vila São José","latLng":{"lat":-2.51419285,"lng":-44.16718483}},{"_id":"57f6540ae25c7c486ba3d0a2","id":112879,"name":"P 1859 - BR-135","latLng":{"lat":-2.61958363,"lng":-44.29611325}},{"_id":"57f6540ae25c7c486ba3d07e","id":116328,"name":"P 1792 - Av. Vicente Venâncio de Queiroga, 800","latLng":{"lat":-2.55956887,"lng":-44.27413523}},{"_id":"57f6540ae25c7c486ba3d0a8","id":113179,"name":"P 1112 - Av. Oeste Interna, 62-64","latLng":{"lat":-2.58199636,"lng":-44.20644432}},{"_id":"57f6540ae25c7c486ba3d06f","id":115578,"name":"P 685 - Av. Doze, 7-65","latLng":{"lat":-2.54223217,"lng":-44.17336464}},{"_id":"57f6540ae25c7c486ba3d08b","id":116978,"name":"P 3098 - Rotatória PMMA","latLng":{"lat":-2.49492619,"lng":-44.27852333}},{"_id":"57f6540ae25c7c486ba3d098","id":112379,"name":"P 3104 - R. 1, 1066-1110","latLng":{"lat":-2.54111211,"lng":-44.199543}},{"_id":"57f6540ae25c7c486ba3d05a","id":114528,"name":"P 325 - Av. Cinco","latLng":{"lat":-2.63702644,"lng":-44.26429689}},{"_id":"57f6540ae25c7c486ba3d083","id":116578,"name":"P 3894 - R. General Artur Carvalho, 552","latLng":{"lat":-2.54648732,"lng":-44.1034019}},{"_id":"57f6540ae25c7c486ba3d082","id":116528,"name":"P 1394 - Av. São Raimundo, 998-1052","latLng":{"lat":-2.59813481,"lng":-44.22717244}},{"_id":"57f6540ae25c7c486ba3d058","id":114428,"name":"P 574 - Av. dos Carajás, 234-304","latLng":{"lat":-2.5317175,"lng":-44.16502833}},{"_id":"57f6540ae25c7c486ba3d08e","id":117128,"name":"P 200 - Av. Belo Horizonte, 505","latLng":{"lat":-2.61838058,"lng":-44.19339269}},{"_id":"57f6540ae25c7c486ba3d070","id":115628,"name":"P 3185 - R. 7 de Setembro, 4","latLng":{"lat":-2.56623017,"lng":-44.19484377}},{"_id":"57f6540ae25c7c486ba3d094","id":112179,"name":"P 3602 - R. do Campo, 13","latLng":{"lat":-2.60861945,"lng":-44.24458802}},{"_id":"57f6540ae25c7c486ba3d0a0","id":112779,"name":"P 2108 - Distribuidora Coca-Cola","latLng":{"lat":-2.55204954,"lng":-44.25865889}},{"_id":"57f6540ae25c7c486ba3d064","id":115028,"name":"P 4379 - R. Principal, Tajaçuaba","latLng":{"lat":-2.63467128,"lng":-44.21802878}},{"_id":"57f6540ae25c7c486ba3d084","id":116628,"name":"P 1195 - Av. Piancó, 7","latLng":{"lat":-2.56875963,"lng":-44.30021167}},{"_id":"57f6540ae25c7c486ba3d09a","id":112479,"name":"P 2855 - Ponto Final Santo Antônio","latLng":{"lat":-2.55882396,"lng":-44.24287140000001}},{"_id":"57f6540ae25c7c486ba3d0ac","id":113379,"name":"P 614 - Av. dos Holandeses, 1595-1689","latLng":{"lat":-2.47743857,"lng":-44.2053473}},{"_id":"57f6540ae25c7c486ba3d07a","id":116128,"name":"P 2190 - Estr. da Mata, 30","latLng":{"lat":-2.58394435,"lng":-44.18083727}},{"_id":"57f6540ae25c7c486ba3d09d","id":112629,"name":"P 5106 - Trav. Vitórino Freire, 32-B","latLng":{"lat":-2.6129494,"lng":-44.24306989}},{"_id":"57f6540ae25c7c486ba3d0a9","id":113229,"name":"P 3612 - R. do Campo, 462-550","latLng":{"lat":-2.60199588,"lng":-44.2389366}},{"_id":"57f6540ae25c7c486ba3d088","id":116827,"name":"P 797 - Av. Gov. Luís Rocha, 1458","latLng":{"lat":-2.53185683,"lng":-44.28504646}},{"_id":"57f6540ae25c7c486ba3d09f","id":112729,"name":"P 4857 - R. Turiaçú, 268","latLng":{"lat":-2.55892578,"lng":-44.27890956}},{"_id":"57f6540ae25c7c486ba3d09b","id":112529,"name":"P 106 - Av. 1, 64-158","latLng":{"lat":-2.46628498,"lng":-44.16452944}},{"_id":"57f6540ae25c7c486ba3d08f","id":117178,"name":"P 2700 - PAIVA MATERIAIS DE CONSTRUÇÃO","latLng":{"lat":-2.56441345,"lng":-44.23921824}},{"_id":"57f6540ae25c7c486ba3d0a1","id":112829,"name":"P 4608 - R. São Sebastião, 15","latLng":{"lat":-2.6150715,"lng":-44.24591303}},{"_id":"57f6540ae25c7c486ba3d095","id":112229,"name":"P 853 - Av. Jailson Sousa Viana, 349","latLng":{"lat":-2.58529748,"lng":-44.18569207}},{"_id":"57f6540ae25c7c486ba3d0a6","id":113079,"name":"P 1361 - Av. São Carlos, 102-118","latLng":{"lat":-2.48102401,"lng":-44.22438025}},{"_id":"57f6540ae25c7c486ba3d0ab","id":113329,"name":"P 3363 - R. Corrêa de Araújo, 215-235","latLng":{"lat":-2.52658339,"lng":-44.28426862}},{"_id":"57f6540ae25c7c486ba3d0b0","id":113579,"name":"P 116 - Av. 9, 488-614","latLng":{"lat":-2.53912922,"lng":-44.17099893}},{"_id":"57f6540ae25c7c486ba3d0b3","id":113729,"name":"P 2367 - Estr. do Quebra Pote, 5","latLng":{"lat":-2.69232202,"lng":-44.21567917}},{"_id":"57f6540ae25c7c486ba3d0b5","id":113829,"name":"P 2118 - Elevado Alcione Nazaré","latLng":{"lat":-2.54207675,"lng":-44.2619124}},{"_id":"57f6540ae25c7c486ba3d0bb","id":114129,"name":"P 1371 - Av. São Luís Rei de França, 341-453","latLng":{"lat":-2.50633348,"lng":-44.2274192}},{"_id":"57f6540ae25c7c486ba3d0c2","id":114479,"name":"P 3124 - R. 1, 551-651","latLng":{"lat":-2.54093526,"lng":-44.19876516}},{"_id":"57f6540ae25c7c486ba3d0be","id":114279,"name":"P 3622 - R. do Cema, 2-100","latLng":{"lat":-2.54292886,"lng":-44.25952256}},{"_id":"57f6540ae25c7c486ba3d0c0","id":114379,"name":"P 3373 - R. da Ata","latLng":{"lat":-2.54833085,"lng":-44.18709755}},{"_id":"57f6540ae25c7c486ba3d0c5","id":114629,"name":"P 126 - Av. A, 28-86","latLng":{"lat":-2.52793391,"lng":-44.2528224}},{"_id":"57f6540ae25c7c486ba3d0b6","id":113879,"name":"P 4618 - R. São Sebastião, 559-599","latLng":{"lat":-2.61910134,"lng":-44.24258709}},{"_id":"57f6540ae25c7c486ba3d0ad","id":113429,"name":"P 3114 - R. 1, 3","latLng":{"lat":-2.54077984,"lng":-44.19802487}},{"_id":"57f6540ae25c7c486ba3d0bc","id":114179,"name":"P 3871 - R. General Artur Carvalho, 1408-2048","latLng":{"lat":-2.49388648,"lng":-44.18763936}},{"_id":"57f6540ae25c7c486ba3d0c4","id":114579,"name":"P 2875 - Ponto Final T085 e T086","latLng":{"lat":-2.54807898,"lng":-44.206860070000005}},{"_id":"57f6540ae25c7c486ba3d0ae","id":113479,"name":"P 365 - Av. Contôrno Leste Oeste, 03","latLng":{"lat":-2.53771977,"lng":-44.19872761}},{"_id":"57f6540ae25c7c486ba3d0bf","id":114329,"name":"P 873 - Av. Jerônimo de Albuquerque, 3351-3571","latLng":{"lat":-2.50160659,"lng":-44.27208334}},{"_id":"57f6540ae25c7c486ba3d0b1","id":113629,"name":"P 2616 - MA-202, 8","latLng":{"lat":-2.54978317,"lng":-44.20457482}},{"_id":"57f6540ae25c7c486ba3d0b9","id":114029,"name":"P 1620 - Av. Transrural 10","latLng":{"lat":-2.6478564,"lng":-44.17950153}},{"_id":"57f6540ae25c7c486ba3d0b4","id":113779,"name":"P 4867 - R. Um, 1","latLng":{"lat":-2.54566469,"lng":-44.28899735}},{"_id":"57f6540ae25c7c486ba3d0b2","id":113679,"name":"P 5116 - R. Jaguarana - Res. Turiúba, São José de Ribamar","latLng":{"lat":-2.56590059,"lng":-44.10217613}},{"_id":"57f6540ae25c7c486ba3d0c3","id":114529,"name":"P 375 - Av. Contôrno Leste Oeste, 611-649","latLng":{"lat":-2.53910243,"lng":-44.20482695}},{"_id":"57f6540ae25c7c486ba3d0b8","id":113979,"name":"P 4369 - R. Principal, 982-1270","latLng":{"lat":-2.50985185,"lng":-44.17791367}},{"_id":"57f6540ae25c7c486ba3d0bd","id":114229,"name":"P 1122 - Av. Oito, 235-291","latLng":{"lat":-2.53859599,"lng":-44.16647136}},{"_id":"57f6540ae25c7c486ba3d0b7","id":113929,"name":"P 1869 - BR-135","latLng":{"lat":-2.73267082,"lng":-44.3566373}},{"_id":"57f6540ae25c7c486ba3d0ba","id":114079,"name":"P 4120 - R. Mirador, 477","latLng":{"lat":-2.56111496,"lng":-44.27942723}},{"_id":"57f6540ae25c7c486ba3d0c1","id":114429,"name":"P 624 - Av. dos Holandeses, 2135-2281","latLng":{"lat":-2.49161413,"lng":-44.23177779}},{"_id":"57f6540ae25c7c486ba3d0c7","id":114729,"name":"P 5126 - Av. Tambor de Crioula, 8 - Parque Timbiras,","latLng":{"lat":-2.56355355,"lng":-44.27446246}},{"_id":"57f6540ae25c7c486ba3d0fa","id":112080,"name":"P 3901 - R. General Artur Carvalho, 614-746","latLng":{"lat":-2.54214642,"lng":-44.11053658}},{"_id":"57f6540ae25c7c486ba3d0d8","id":115579,"name":"P 735 - Av. Eng. Emiliano Macieira, 54","latLng":{"lat":-2.63934677,"lng":-44.31088686}},{"_id":"57f6540ae25c7c486ba3d0d0","id":115179,"name":"P 1531 - Av. Sta. Rosa - 37","latLng":{"lat":-2.62848191,"lng":-44.18943375}},{"_id":"57f6540ae25c7c486ba3d0ee","id":116673,"name":"P 3745 - R. Duzentos e Cinco, 2-6","latLng":{"lat":-2.58086562,"lng":-44.19953227}},{"_id":"57f6540ae25c7c486ba3d0de","id":115879,"name":"P 138 - Av. Amália Saldanha, 259-265","latLng":{"lat":-2.56558708,"lng":-44.26277876}},{"_id":"57f6540ae25c7c486ba3d0d9","id":115629,"name":"P 3235 - R. Antenor Melo, 350-446","latLng":{"lat":-2.5587007,"lng":-44.06015933}},{"_id":"57f6540ae25c7c486ba3d0fb","id":112130,"name":"P 1152 - Av. Paraíso, 314","latLng":{"lat":-2.57176068,"lng":-44.17545676}},{"_id":"57f6540ae25c7c486ba3d0f7","id":117129,"name":"P 250 - Av. C, 2-200","latLng":{"lat":-2.52773562,"lng":-44.23277557}},{"_id":"57f6540ae25c7c486ba3d0e5","id":116229,"name":"P 2041 - CINTRA","latLng":{"lat":-2.54821697,"lng":-44.23793212}},{"_id":"57f6540ae25c7c486ba3d0e1","id":116029,"name":"P 2439 - Fazenda 1","latLng":{"lat":-2.67991703,"lng":-44.27239716}},{"_id":"57f6540ae25c7c486ba3d113","id":113330,"name":"P 3413 - R. da Juçara, 2-32","latLng":{"lat":-2.56266372,"lng":-44.32176858}},{"_id":"57f6540ae25c7c486ba3d0ca","id":114879,"name":"P 2128 - Entrada da Maiobinha","latLng":{"lat":-2.56125697,"lng":-44.19609904}},{"_id":"57f6540ae25c7c486ba3d0fe","id":112280,"name":"P 3403 - R. da Granja","latLng":{"lat":-2.46096366,"lng":-44.16031837}},{"_id":"57f6540ae25c7c486ba3d0da","id":115679,"name":"P 536 - Av. Dois, 135-269","latLng":{"lat":-2.56869532,"lng":-44.23066199}},{"_id":"57f6540ae25c7c486ba3d0f9","id":112030,"name":"P 1401 - Av. São Sebastião, 962","latLng":{"lat":-2.5394882879572105,"lng":-44.23028111457825}},{"_id":"57f6540ae25c7c486ba3d100","id":112380,"name":"P 3154 - R. 2, 5738-5864","latLng":{"lat":-2.52140639,"lng":-44.21741188}},{"_id":"57f6540ae25c7c486ba3d0e0","id":115979,"name":"P 5138 - R. Cento e Um, 31 - Cidade Operária,","latLng":{"lat":-2.56859886,"lng":-44.19830382}},{"_id":"57f6540ae25c7c486ba3d10c","id":112980,"name":"P 1660 - Av. Transrural, 15789","latLng":{"lat":-2.66838002,"lng":-44.1875428}},{"_id":"57f6540ae25c7c486ba3d105","id":112630,"name":"P 5156 - Estr. de Ribamar, 1708-1868 - Forquilha,","latLng":{"lat":-2.55336439,"lng":-44.22409192}},{"_id":"57f6540ae25c7c486ba3d0f6","id":117079,"name":"P 2949 - Pça. Ivar Saldanha","latLng":{"lat":-2.543845,"lng":-44.27331984}},{"_id":"57f6540ae25c7c486ba3d0f8","id":117179,"name":"P 2750 - Ponto Final - Vila Vitória","latLng":{"lat":-2.60593198,"lng":-44.20107186000001}},{"_id":"57f6540ae25c7c486ba3d0d5","id":115429,"name":"P 3633 - R. do Coletor Agrícola, 166-222","latLng":{"lat":-2.61994803,"lng":-44.25714075999997}},{"_id":"57f6540ae25c7c486ba3d0d1","id":115229,"name":"P 4031 - R. Jackson Lago, 210-276","latLng":{"lat":-2.54516094,"lng":-44.3091917}},{"_id":"57f6540ae25c7c486ba3d0d2","id":115279,"name":"P 1332 - Av. Santiago, 1141-1475","latLng":{"lat":-2.61740259,"lng":-44.2023164}},{"_id":"57f6540ae25c7c486ba3d0ef","id":116729,"name":"P 1046 - Av. Mascarenhas de Moraes, 920-1020","latLng":{"lat":-2.56123553,"lng":-44.17008162}},{"_id":"57f6540ae25c7c486ba3d0d3","id":115329,"name":"P 3832 - R. General Artur Carvalho","latLng":{"lat":-2.47598081,"lng":-44.13169384}},{"_id":"57f6540ae25c7c486ba3d104","id":112580,"name":"P 2656 - Mato Grosso 04","latLng":{"lat":-2.67102181,"lng":-44.17588054999999}},{"_id":"57f6540ae25c7c486ba3d0d7","id":115529,"name":"P 3434 - R. da Mouraria, 125-321","latLng":{"lat":-2.52770882,"lng":-44.22245979}},{"_id":"57f6540ae25c7c486ba3d0ff","id":112330,"name":"P 654 - Av. dos Holandeses, 6384-6512","latLng":{"lat":-2.49377394,"lng":-44.26946819}},{"_id":"57f6540ae25c7c486ba3d114","id":113380,"name":"P 664 - Av. dos Holandeses, 8891-8907","latLng":{"lat":-2.48417533,"lng":-44.21963811}},{"_id":"57f6540ae25c7c486ba3d0db","id":115729,"name":"P 3036 - Res. Ribeira","latLng":{"lat":-2.63409521,"lng":-44.24966812}},{"_id":"57f6540ae25c7c486ba3d0ea","id":116479,"name":"P 4143 - R. N. Sra. de Fátima n.8, Bom Jardim","latLng":{"lat":-2.63399875,"lng":-44.16329563}},{"_id":"57f6540ae25c7c486ba3d0cc","id":114979,"name":"P 1929 - BR-135, 40","latLng":{"lat":-2.67395831,"lng":-44.29270148}},{"_id":"57f6540ae25c7c486ba3d0eb","id":116529,"name":"P 1444 - Av. Sen. Vitórino Freire, 3631-3677","latLng":{"lat":-2.54364698,"lng":-44.29395676}},{"_id":"57f6540ae25c7c486ba3d112","id":113280,"name":"P 913 - Av. Joaquim Mochel, 100","latLng":{"lat":-2.53303854,"lng":-44.20601517}},{"_id":"57f6540ae25c7c486ba3d0cd","id":115029,"name":"P 4429 - R. R, 2-10","latLng":{"lat":-2.54012067,"lng":-44.20858741}},{"_id":"57f6540ae25c7c486ba3d0f3","id":116929,"name":"P 648 - Av. dos Holandeses, 561-655","latLng":{"lat":-2.49335591,"lng":-44.28522348}},{"_id":"57f6540ae25c7c486ba3d115","id":113430,"name":"P 3164 - R. 27, 130-282","latLng":{"lat":-2.53005615,"lng":-44.23531830000002}},{"_id":"57f6540ae25c7c486ba3d0c8","id":114779,"name":"P 2377 - Estr. Nova de Vinhais, 62","latLng":{"lat":-2.52182173,"lng":-44.2664212}},{"_id":"57f6540ae25c7c486ba3d0d6","id":115479,"name":"P 934 - Av. Joaquim Mochel, 2","latLng":{"lat":-2.55310582,"lng":-44.2784375}},{"_id":"57f6540ae25c7c486ba3d0ec","id":116579,"name":"P 3944 - R. Gov. Epitácio Cafeteira, 222","latLng":{"lat":-2.57213447,"lng":-44.26898338}},{"_id":"57f6540ae25c7c486ba3d10b","id":112930,"name":"P 4409 - R. Quatro, 1101-1201","latLng":{"lat":-2.59576884,"lng":-44.23289895}},{"_id":"57f6540ae25c7c486ba3d0c6","id":114679,"name":"P 2626 - MA-204, 4213-4375","latLng":{"lat":-2.52267117,"lng":-44.13770199}},{"_id":"57f6540ae25c7c486ba3d0df","id":115929,"name":"P 2638 - Mac Center","latLng":{"lat":-2.510429536694291,"lng":-44.24741648463544}},{"_id":"57f6540ae25c7c486ba3d0e2","id":116079,"name":"P 4939 - R. Vinte e Nove, São Raimundo","latLng":{"lat":-2.59937003,"lng":-44.22576159}},{"_id":"57f6540ae25c7c486ba3d0dd","id":115829,"name":"P 2837 - Ponto final Pedrinhas","latLng":{"lat":-2.6985836577772995,"lng":-44.30998029563466}},{"_id":"57f6540ae25c7c486ba3d0e8","id":116379,"name":"P 4342 - R. Principal, 3845-4149","latLng":{"lat":-2.49852767,"lng":-44.16364432}},{"_id":"57f6540ae25c7c486ba3d106","id":112680,"name":"P 2407 - Estr. para Fábrica, 47","latLng":{"lat":-2.47690799,"lng":-44.10075188}},{"_id":"57f6540ae25c7c486ba3d0e3","id":116129,"name":"P 2240 - Estr. de Sta. Maria x Estr. do Guarapiranga","latLng":{"lat":-2.63631105,"lng":-44.17871028}},{"_id":"57f6540ae25c7c486ba3d0e7","id":116329,"name":"P 1842 - BR-135","latLng":{"lat":-2.68686643,"lng":-44.30630028}},{"_id":"57f6540ae25c7c486ba3d0c9","id":114829,"name":"P 4877 - R. Um, 232-378","latLng":{"lat":-2.55698043,"lng":-44.32377756}},{"_id":"57f6540ae25c7c486ba3d0fd","id":112230,"name":"P 903 - Av. João Castelo, Recanto Canaã","latLng":{"lat":-2.60193962,"lng":-44.22613978}},{"_id":"57f6540ae25c7c486ba3d0f2","id":116879,"name":"P 3347 - R. Cinco, 289-325","latLng":{"lat":-2.55172317,"lng":-44.33364004}},{"_id":"57f6540ae25c7c486ba3d10d","id":113030,"name":"P 4160 - R. Nossa Senhora da Vitória, 588-694","latLng":{"lat":-2.4977184,"lng":-44.19093847}},{"_id":"57f6540ae25c7c486ba3d0cb","id":114929,"name":"P 4628 - R. Seis, 1487-1555","latLng":{"lat":-2.50244532,"lng":-44.24285531}},{"_id":"57f6540ae25c7c486ba3d0ce","id":115079,"name":"P 1730 - Av. Ulisses Guimarães, 2-82","latLng":{"lat":-2.488018,"lng":-44.273657800000024}},{"_id":"57f6540ae25c7c486ba3d0e9","id":116429,"name":"P 1643 - Av. Transrural 34","latLng":{"lat":-2.64767957,"lng":-44.17954981}},{"_id":"57f6540ae25c7c486ba3d0d4","id":115379,"name":"P 1133 - Av. Oito, 60-62","latLng":{"lat":-2.50139489,"lng":-44.22337174}},{"_id":"57f6540ae25c7c486ba3d0f0","id":116779,"name":"P 3546 - R. Dez, 831","latLng":{"lat":-2.57247343,"lng":-44.22177315}},{"_id":"57f6540ae25c7c486ba3d0dc","id":115779,"name":"P 337 - Av. Cinco, 523-569","latLng":{"lat":-2.53685694,"lng":-44.15027618}},{"_id":"57f6540ae25c7c486ba3d103","id":112530,"name":"P 156 - Av. Argentina, 34-36","latLng":{"lat":-2.49911987,"lng":-44.217041730000005}},{"_id":"57f6540ae25c7c486ba3d0f4","id":116979,"name":"P 3148 - R. 15, 787-923","latLng":{"lat":-2.56824516,"lng":-44.17645454}},{"_id":"57f6540ae25c7c486ba3d0e6","id":116279,"name":"P 4541 - R. São Jorge, 680-732","latLng":{"lat":-2.60688586,"lng":-44.20089483}},{"_id":"57f6540ae25c7c486ba3d108","id":112780,"name":"P 2158 - Estr. da Maioba, 106-276","latLng":{"lat":-2.531546,"lng":-44.18171167}},{"_id":"57f6540ae25c7c486ba3d0f1","id":116830,"name":"P 847 - Av. Jailson Sousa Viana, 11","latLng":{"lat":-2.58962751,"lng":-44.18549895}},{"_id":"57f6540ae25c7c486ba3d117","id":113530,"name":"P 2915 - Posto de Táxi Saramanta","latLng":{"lat":-2.55490915,"lng":-44.196783}},{"_id":"57f6540ae25c7c486ba3d10a","id":112880,"name":"P 1909 - BR-135, 250","latLng":{"lat":-2.68429496,"lng":-44.29717541}},{"_id":"57f6540ae25c7c486ba3d111","id":113230,"name":"P 3662 - R. do Porto, 2-108","latLng":{"lat":-2.6188977,"lng":-44.20993388}},{"_id":"57f6540ae25c7c486ba3d0cf","id":115129,"name":"P 4230 - R. Onze, 15","latLng":{"lat":-2.49929404,"lng":-44.24725413}},{"_id":"57f6540ae25c7c486ba3d101","id":112430,"name":"P 405 - Av. Contôrno Leste, 635-687","latLng":{"lat":-2.53538853,"lng":-44.16178286}},{"_id":"57f6540ae25c7c486ba3d0e4","id":116179,"name":"P 4740 - R. Sta. Helena, 497","latLng":{"lat":-2.57463311,"lng":-44.17066097}},{"_id":"57f6540ae25c7c486ba3d0ed","id":116629,"name":"P 1245 - Av. Principal Jardim América, 433-455","latLng":{"lat":-2.58432216,"lng":-44.19384598}},{"_id":"57f6540ae25c7c486ba3d0fc","id":112180,"name":"P 3652 - R. do Passeio, 835-887","latLng":{"lat":-2.44739342,"lng":-44.10552621}},{"_id":"57f6540ae25c7c486ba3d0f5","id":117029,"name":"P 449 - Av. Contôrno, 35-45","latLng":{"lat":-2.53425239,"lng":-44.24775839}},{"_id":"57f6540ae25c7c486ba3d109","id":112830,"name":"P 4658 - R. sem nome","latLng":{"lat":-2.54819152,"lng":-44.10891652}},{"_id":"57f6540ae25c7c486ba3d102","id":112480,"name":"P 2905 - Porque Botânico da vale","latLng":{"lat":-2.56626232,"lng":-44.32493627}},{"_id":"57f6540ae25c7c486ba3d107","id":112730,"name":"P 4907 - R. Valê do Rio Doce, 134-300","latLng":{"lat":-2.54771188,"lng":-44.31903541}},{"_id":"57f6540ae25c7c486ba3d110","id":113180,"name":"P 1162 - Av. Paulo Brandão, 759-829","latLng":{"lat":-2.50472838,"lng":-44.18129861}},{"_id":"57f6540ae25c7c486ba3d10e","id":113080,"name":"P 1411 - Av. Sarney Filho, 421-455","latLng":{"lat":-2.57205565,"lng":-44.30250764}},{"_id":"57f6540ae25c7c486ba3d10f","id":113130,"name":"P 3911 - R. General Artur Carvalho, 7526-7796","latLng":{"lat":-2.50565018,"lng":-44.16007698}},{"_id":"57f6540ae25c7c486ba3d116","id":113480,"name":"P 415 - Av. Contôrno Norte Sul, 5","latLng":{"lat":-2.54133183,"lng":-44.2017746}},{"_id":"57f6540ae25c7c486ba3d122","id":114080,"name":"P 4170 - R. Nossa Senhora das Liberdade, 20","latLng":{"lat":-2.60717792,"lng":-44.1795069}},{"_id":"57f6540ae25c7c486ba3d119","id":113630,"name":"P 2666 - Mercado Central","latLng":{"lat":-2.53368967,"lng":-44.30028677}},{"_id":"57f6540ae25c7c486ba3d11d","id":113830,"name":"P 2168 - Estr. da Maioba, 323-611","latLng":{"lat":-2.53658362,"lng":-44.18826699}},{"_id":"57f6540ae25c7c486ba3d11e","id":113880,"name":"P 4668 - R. sem nome","latLng":{"lat":-2.65959188,"lng":-44.29396749}},{"_id":"57f6540ae25c7c486ba3d121","id":114030,"name":"P 1670 - Av. Três, 42","latLng":{"lat":-2.55659694,"lng":-44.25117284}},{"_id":"57f6540ae25c7c486ba3d125","id":114230,"name":"P 1172 - Av. Pavão Filho, 50-56","latLng":{"lat":-2.58686498,"lng":-44.19193357}},{"_id":"57f6540ae25c7c486ba3d131","id":114830,"name":"P 4927 - R. Vinte e Cinco, 33-81","latLng":{"lat":-2.5586334,"lng":-44.25392747}},{"_id":"57f6540ae25c7c486ba3d123","id":114130,"name":"P 1421 - Av. Seis, 8","latLng":{"lat":-2.5810639,"lng":-44.19087946}},{"_id":"57f6540ae25c7c486ba3d11f","id":113930,"name":"P 1919 - BR-135, 30","latLng":{"lat":-2.73895076,"lng":-44.33690429}},{"_id":"57f6540ae25c7c486ba3d132","id":114880,"name":"P 2178 - Estr. da Mata","latLng":{"lat":-2.58373267,"lng":-44.17527437}},{"_id":"57f6540ae25c7c486ba3d135","id":115030,"name":"P 4479 - R. Santo Antônio, Pindaí","latLng":{"lat":-2.54985284,"lng":-44.12260652}},{"_id":"57f6540ae25c7c486ba3d127","id":114330,"name":"P 923 - Av. Joaquim Mochel, 125-127","latLng":{"lat":-2.53208728,"lng":-44.20145005}},{"_id":"57f6540ae25c7c486ba3d139","id":115230,"name":"P 4081 - R. José Andrade, 790-850","latLng":{"lat":-2.53264999,"lng":-44.14654255}},{"_id":"57f6540ae25c7c486ba3d12c","id":114580,"name":"P 2925 - Pça. 7 Palmeiras","latLng":{"lat":-2.57017442,"lng":-44.30900663}},{"_id":"57f6540ae25c7c486ba3d137","id":115130,"name":"P 4280 - R. Principal 05","latLng":{"lat":-2.67152283,"lng":-44.18521196}},{"_id":"57f6540ae25c7c486ba3d136","id":115080,"name":"P 1780 - Av. Um, 904-1014","latLng":{"lat":-2.53084395,"lng":-44.24514055}},{"_id":"57f6540ae25c7c486ba3d13b","id":115330,"name":"P 3882 - R. General Artur Carvalho, 377-413","latLng":{"lat":-2.49618564,"lng":-44.19295549}},{"_id":"57f6540ae25c7c486ba3d120","id":113980,"name":"P 4419 - R. Quatro, 31","latLng":{"lat":-2.58097816,"lng":-44.2159313}},{"_id":"57f6540ae25c7c486ba3d11a","id":113680,"name":"P 5166 - R. Primeiro de Maio, 751-799 - São Cristovao,","latLng":{"lat":-2.58881832,"lng":-44.24592375}},{"_id":"57f6540ae25c7c486ba3d134","id":114980,"name":"P 1979 - CAEMA","latLng":{"lat":-2.57455808,"lng":-44.1985023}},{"_id":"57f6540ae25c7c486ba3d11c","id":113780,"name":"P 4917 - R. Vila Regino, Andiroba","latLng":{"lat":-2.62318475,"lng":-44.19129789}},{"_id":"57f6540ae25c7c486ba3d11b","id":113730,"name":"P 2417 - Estr. para Igaraú 2","latLng":{"lat":-2.74350797,"lng":-44.33359712}},{"_id":"57f6540ae25c7c486ba3d124","id":114180,"name":"P 3921 - R. General Artur Carvalho, 8697-9119","latLng":{"lat":-2.49988357,"lng":-44.16997433}},{"_id":"57f6540ae25c7c486ba3d126","id":114280,"name":"P 3672 - R. do Ribeirão, 6","latLng":{"lat":-2.6397969,"lng":-44.27638293}},{"_id":"57f6540ae25c7c486ba3d12d","id":114630,"name":"P 176 - Av. Atlântica de São Luís Ou Ferreira Gullar, 4829-5063","latLng":{"lat":-2.51065574,"lng":-44.30970669}},{"_id":"57f6540ae25c7c486ba3d12a","id":114480,"name":"P 3174 - R. 4 Quadra 7, 6","latLng":{"lat":-2.56463317,"lng":-44.31048989}},{"_id":"57f6540ae25c7c486ba3d128","id":114380,"name":"P 3423 - R. da Mangueira, 1107-1131","latLng":{"lat":-2.50957317,"lng":-44.19045568}},{"_id":"57f6540ae25c7c486ba3d129","id":114430,"name":"P 674 - Av. dos Nobres, 4","latLng":{"lat":-2.55772535,"lng":-44.2758733}},{"_id":"57f6540ae25c7c486ba3d130","id":114780,"name":"P 2427 - Estr. para Juçara","latLng":{"lat":-2.44240905,"lng":-44.09474373}},{"_id":"57f6540ae25c7c486ba3d133","id":114930,"name":"P 4678 - R. sem nome","latLng":{"lat":-2.57105865,"lng":-44.15280819}},{"_id":"57f6540ae25c7c486ba3d12f","id":114730,"name":"P 5176 - R. Ten. Nojosa, 20 - São Cristovao,","latLng":{"lat":-2.58942387,"lng":-44.24618661}},{"_id":"57f6540ae25c7c486ba3d12b","id":114530,"name":"P 425 - Av. Contôrno Norte, 576-622","latLng":{"lat":-2.53654075,"lng":-44.20622706}},{"_id":"57f6540ae25c7c486ba3d13c","id":115380,"name":"P 1183 - Av. Piancó, 103","latLng":{"lat":-2.57218963,"lng":-44.29676235}},{"_id":"57f6540ae25c7c486ba3d138","id":115180,"name":"P 1581 - Av. Tancredo Neves, 6","latLng":{"lat":-2.57171245,"lng":-44.18880344}},{"_id":"57f6540ae25c7c486ba3d12e","id":114680,"name":"P 2676 - MONOBLOCO","latLng":{"lat":-2.55873419,"lng":-44.22452375}},{"_id":"57f6540ae25c7c486ba3d13a","id":115280,"name":"P 1382 - Av. São Paulo, 507-579","latLng":{"lat":-2.47831627,"lng":-44.20171022}},{"_id":"57f6540ae25c7c486ba3d144","id":115780,"name":"P 387 - Av. Contôrno Leste, 224-292","latLng":{"lat":-2.5364952,"lng":-44.21181143}},{"_id":"57f6540ae25c7c486ba3d13d","id":115430,"name":"P 3683 - R. Dois, 15","latLng":{"lat":-2.50706235,"lng":-44.25820827}},{"_id":"57f6540ae25c7c486ba3d13f","id":115530,"name":"P 3484 - R. da Vitória, 4-282","latLng":{"lat":-2.51956282,"lng":-44.22470748}},{"_id":"57f6540ae25c7c486ba3d140","id":115580,"name":"P 785 - Av. Gonçalves Dias, 1323-1391","latLng":{"lat":-2.55417227,"lng":-44.06079233}},{"_id":"57f6540ae25c7c486ba3d145","id":115830,"name":"P 2887 - Ponto Final Vila Funil","latLng":{"lat":-2.60898921,"lng":-44.243887959999995}},{"_id":"57f6540ae25c7c486ba3d154","id":116580,"name":"P 3994 - R. Heitor Augusto, 545-659","latLng":{"lat":-2.50961336,"lng":-44.25384432}},{"_id":"57f6540ae25c7c486ba3d155","id":116630,"name":"P 1295 - Av. Principal, 719-917","latLng":{"lat":-2.51565057,"lng":-44.10874486}},{"_id":"57f6540ae25c7c486ba3d149","id":116030,"name":"P 2489 - Granja","latLng":{"lat":-2.69541922,"lng":-44.25835848}},{"_id":"57f6540ae25c7c486ba3d147","id":115930,"name":"P 2688 - Novo Horizonte, 6","latLng":{"lat":-2.52603675,"lng":-44.14681077}},{"_id":"57f6540ae25c7c486ba3d142","id":115680,"name":"P 586 - Av. dos Curvos, 946-1022","latLng":{"lat":-2.61539304,"lng":-44.25656676}},{"_id":"57f6540ae25c7c486ba3d141","id":115630,"name":"P 3285 - R. Boa Esperança, 1362-1440","latLng":{"lat":-2.52138227,"lng":-44.23141032}},{"_id":"57f6540ae25c7c486ba3d13e","id":115480,"name":"P 984 - Av. José Sarney, 52-100","latLng":{"lat":-2.53912387,"lng":-44.32889789}},{"_id":"57f6540ae25c7c486ba3d14d","id":116230,"name":"P 2091 - Curva do 90","latLng":{"lat":-2.51679477,"lng":-44.26046938}},{"_id":"57f6540ae25c7c486ba3d14a","id":116080,"name":"P 4989 - Sesc Olho D'Água","latLng":{"lat":-2.48335534,"lng":-44.22396183}},{"_id":"57f6540ae25c7c486ba3d14e","id":116280,"name":"P 4591 - R. São Miguel","latLng":{"lat":-2.63983174,"lng":-44.27626491}},{"_id":"57f6540ae25c7c486ba3d157","id":116730,"name":"P 1096 - Av. Oeste Externa, 3542-3644","latLng":{"lat":-2.57459559,"lng":-44.20600176}},{"_id":"57f6540ae25c7c486ba3d14f","id":116330,"name":"P 1892 - BR-135, 1618","latLng":{"lat":-2.69924517,"lng":-44.30814028}},{"_id":"57f6540ae25c7c486ba3d14c","id":116180,"name":"P 4790 - R. Totóia, 164","latLng":{"lat":-2.55935718,"lng":-44.27841067}},{"_id":"57f6540ae25c7c486ba3d151","id":116430,"name":"P 1693 - Av. Trindade, 2726-2814","latLng":{"lat":-2.5758764,"lng":-44.16219592}},{"_id":"57f6540ae25c7c486ba3d146","id":115880,"name":"P 188 - Av. Atlântica, 6-8","latLng":{"lat":-2.47617375,"lng":-44.19694662}},{"_id":"57f6540ae25c7c486ba3d156","id":116677,"name":"P 3795 - R. Evandro Bessa, 682-744","latLng":{"lat":-2.63670492,"lng":-44.27704275}},{"_id":"57f6540ae25c7c486ba3d143","id":115730,"name":"P 3086 - Rio São Joaquim","latLng":{"lat":-2.6856989,"lng":-44.26684499}},{"_id":"57f6540ae25c7c486ba3d150","id":116398,"name":"P 4392 - R. Quarenta e Oito, 421","latLng":{"lat":-2.54569417,"lng":-44.2889303}},{"_id":"57f6540ae25c7c486ba3d14b","id":116130,"name":"P 2290 - Estr. do Guarapiranga - 16","latLng":{"lat":-2.66102264,"lng":-44.15370941}},{"_id":"57f6540ae25c7c486ba3d152","id":116480,"name":"P 4193 - R. Nova, 533-629","latLng":{"lat":-2.56255387,"lng":-44.2220521}},{"_id":"57f6540ae25c7c486ba3d148","id":115980,"name":"P 5188 - Av. Eng. Emiliano Macieira, 26 - São Cristovao,","latLng":{"lat":-2.62754144,"lng":-44.31713372}},{"_id":"57f6540ae25c7c486ba3d158","id":116780,"name":"P 3596 - R. do Cacau","latLng":{"lat":-2.74732306,"lng":-44.34990495}},{"_id":"57f6540ae25c7c486ba3d153","id":116530,"name":"P 1494 - Av. Sta. Rosa - 01","latLng":{"lat":-2.62829703,"lng":-44.18939084}},{"_id":"57f6540ae25c7c486ba3d159","id":116828,"name":"P 897 - Av. João Castelo 10, Recanto Canaã","latLng":{"lat":-2.60587839,"lng":-44.22596008}},{"_id":"57f6540ae25c7c486ba3d15b","id":116930,"name":"P 698 - Av. Edson Lobão, Res. Nova Vida - 10","latLng":{"lat":-2.6264161,"lng":-44.19432074}},{"_id":"57f6540ae25c7c486ba3d175","id":113031,"name":"P 4210 - R. Oito","latLng":{"lat":-2.51422501,"lng":-44.19484377}},{"_id":"57f6540ae25c7c486ba3d15e","id":117080,"name":"P 2999 - R. da União 03","latLng":{"lat":-2.65199867,"lng":-44.17812824}},{"_id":"57f6540ae25c7c486ba3d16c","id":112581,"name":"P 2706 - Av. Santa Clara, 671-743 - Santa Clara ,","latLng":{"lat":-2.59072607,"lng":-44.19755012}},{"_id":"57f6540ae25c7c486ba3d163","id":112131,"name":"P 1202 - Av. Pres. Médici, 1203","latLng":{"lat":-2.55845954,"lng":-44.26066518}},{"_id":"57f6540ae25c7c486ba3d15f","id":117130,"name":"P 300 - Av. Carlos Augusto, 364-422","latLng":{"lat":-2.51472878,"lng":-44.17980194}},{"_id":"57f6540ae25c7c486ba3d16e","id":112681,"name":"P 2457 - Feira da Vila Lobão","latLng":{"lat":-2.56875963,"lng":-44.23732459}},{"_id":"57f6540ae25c7c486ba3d160","id":117180,"name":"P 2800 - Ponto Final Coqueiro","latLng":{"lat":-2.72610151,"lng":-44.36136871999997}},{"_id":"57f6540ae25c7c486ba3d184","id":113781,"name":"P 4967 - R. Viveiros de Castro","latLng":{"lat":-2.5365086,"lng":-44.27438736}},{"_id":"57f6540ae25c7c486ba3d196","id":114681,"name":"P 2726 - Parque de Exposições Agropecuárias - EXPOEMA","latLng":{"lat":-2.58980436,"lng":-44.21668768}},{"_id":"57f6540ae25c7c486ba3d169","id":112431,"name":"P 455 - Av. Contôrno, 9-11","latLng":{"lat":-2.5361013,"lng":-44.25052106}},{"_id":"57f6540ae25c7c486ba3d186","id":113881,"name":"P 4718 - R. sem nome","latLng":{"lat":-2.65638741,"lng":-44.31907833}},{"_id":"57f6540ae25c7c486ba3d17b","id":113331,"name":"P 3463 - R. da Saudade, 2","latLng":{"lat":-2.6057471,"lng":-44.22009677}},{"_id":"57f6540ae25c7c486ba3d168","id":112381,"name":"P 3204 - R. Agostinho Tôrres, 181","latLng":{"lat":-2.54567747,"lng":-44.27310526}},{"_id":"57f6540ae25c7c486ba3d16a","id":112481,"name":"P 2955 - Praia do Olho D'Água","latLng":{"lat":-2.47982351,"lng":-44.2246002}},{"_id":"57f6540ae25c7c486ba3d15a","id":116880,"name":"P 3397 - R. da Estrela, 64","latLng":{"lat":-2.56341399,"lng":-44.18926209}},{"_id":"57f6540ae25c7c486ba3d15c","id":116980,"name":"P 3198 - R. Ademar de Barros","latLng":{"lat":-2.64497878,"lng":-44.27715003}},